[{"id":"IT10006","name":"Ricevitoria-Gastronomia","cap":"00166","civico":"8/10","lat":41.917553,"lng":12.374334,"hours":{"lun":[{"o":"09:00","c":"13:30"},{"o":"16:00","c":"19:30"}],"mar":[{"o":"09:00","c":"13:30"},{"o":"16:00","c":"19:30"}],"mer":[{"o":"09:00","c":"13:30"},{"o":"16:00","c":"19:30"}],"gio":[{"o":"09:00","c":"13:30"},{"o":"16:00","c":"19:30"}],"ven":[{"o":"09:00","c":"13:30"},{"o":"16:00","c":"19:30"}],"sab":[{"o":"09:00","c":"13:30"},{"o":"16:00","c":"19:30"}],"dom":null}},{"id":"IT10020","name":"Elegraf Soluzioni d'ufficio","cap":"00148","civico":"","lat":41.853335,"lng":12.420763,"hours":{"lun":[{"o":"09:00","c":"13:00"},{"o":"16:00","c":"19:00"}],"mar":[{"o":"09:00","c":"13:00"},{"o":"16:00","c":"19:00"}],"mer":[{"o":"09:00","c":"13:00"},{"o":"16:00","c":"19:00"}],"gio":[{"o":"09:00","c":"13:00"},{"o":"16:00","c":"19:00"}],"ven":[{"o":"09:00","c":"13:00"},{"o":"16:00","c":"19:00"}],"sab":null,"dom":null}},{"id":"IT10024","name":"La Cartaria","cap":"00043","civico":"39","lat":41.788095,"lng":12.610323,"hours":{"lun":[{"o":"08:00","c":"13:00"},{"o":"16:00","c":"19:30"}],"mar":[{"o":"08:00","c":"13:00"},{"o":"16:00","c":"19:30"}],"mer":[{"o":"08:00","c":"13:00"},{"o":"16:00","c":"19:30"}],"gio":[{"o":"08:00","c":"13:00"},{"o":"16:00","c":"19:30"}],"ven":[{"o":"08:00","c":"13:00"},{"o":"16:00","c":"19:30"}],"sab":[{"o":"08:30","c":"13:00"},{"o":"16:00","c":"19:30"}],"dom":null}},{"id":"IT10025","name":"Gomma Matita e...","cap":"00141","civico":"94","lat":41.943479,"lng":12.517356,"hours":{"lun":[{"o":"08:00","c":"13:00"},{"o":"16:00","c":"19:00"}],"mar":[{"o":"08:00","c":"13:00"},{"o":"16:00","c":"19:00"}],"mer":[{"o":"08:00","c":"13:00"},{"o":"16:00","c":"19:00"}],"gio":[{"o":"08:00","c":"13:00"},{"o":"16:00","c":"19:00"}],"ven":[{"o":"08:00","c":"13:00"},{"o":"16:00","c":"19:00"}],"sab":[{"o":"09:00","c":"13:00"},{"o":"16:30","c":"19:00"}],"dom":null}},{"id":"IT10040","name":"Non solo video","cap":"00152","civico":"","lat":41.878868,"lng":12.462239,"hours":{"lun":[{"o":"16:30","c":"20:00"}],"mar":[{"o":"11:00","c":"14:30"},{"o":"16:30","c":"20:00"}],"mer":[{"o":"11:00","c":"14:30"},{"o":"16:30","c":"20:00"}],"gio":[{"o":"11:00","c":"14:30"},{"o":"16:30","c":"20:00"}],"ven":[{"o":"11:00","c":"14:30"},{"o":"16:30","c":"20:00"}],"sab":[{"o":"11:00","c":"14:30"},{"o":"16:30","c":"20:00"}],"dom":null}},{"id":"IT10113","name":"Cartamania","cap":"00034","civico":"3","lat":41.725342,"lng":13.004534,"hours":{"lun":[{"o":"08:30","c":"13:00"},{"o":"16:30","c":"19:30"}],"mar":[{"o":"08:30","c":"13:00"},{"o":"16:30","c":"19:30"}],"mer":[{"o":"08:30","c":"13:00"},{"o":"16:30","c":"19:30"}],"gio":[{"o":"08:30","c":"13:00"},{"o":"16:30","c":"19:30"}],"ven":[{"o":"08:30","c":"13:00"},{"o":"16:30","c":"19:30"}],"sab":[{"o":"08:30","c":"13:00"},{"o":"16:30","c":"19:30"}],"dom":null}},{"id":"IT10124","name":"Tabacchi - Roma1","cap":"00154","civico":"37","lat":41.865539,"lng":12.494951,"hours":{"lun":[{"o":"08:00","c":"19:00"}],"mar":[{"o":"08:00","c":"19:00"}],"mer":[{"o":"08:00","c":"19:00"}],"gio":[{"o":"08:00","c":"19:00"}],"ven":[{"o":"08:00","c":"19:00"}],"sab":[{"o":"08:00","c":"19:00"}],"dom":null}},{"id":"IT10127","name":"GM Servizi - Castelnuovo di Porto","cap":"00060","civico":"9","lat":42.102035,"lng":12.559081,"hours":{"lun":[{"o":"09:00","c":"13:00"},{"o":"14:30","c":"18:00"}],"mar":[{"o":"09:00","c":"13:00"},{"o":"14:30","c":"18:00"}],"mer":[{"o":"09:00","c":"13:00"},{"o":"14:30","c":"18:00"}],"gio":[{"o":"09:00","c":"13:00"},{"o":"14:30","c":"18:00"}],"ven":[{"o":"09:00","c":"13:00"},{"o":"14:30","c":"18:00"}],"sab":null,"dom":null}},{"id":"IT10133","name":"Ferramenta Proietti","cap":"00119","civico":"","lat":41.760686,"lng":12.303342,"hours":{"lun":[{"o":"08:30","c":"13:00"},{"o":"15:30","c":"19:00"}],"mar":[{"o":"08:30","c":"13:00"},{"o":"15:30","c":"19:00"}],"mer":[{"o":"08:30","c":"13:00"},{"o":"15:30","c":"19:00"}],"gio":[{"o":"08:30","c":"13:00"},{"o":"15:30","c":"19:00"}],"ven":[{"o":"08:30","c":"13:00"},{"o":"15:30","c":"19:00"}],"sab":[{"o":"08:30","c":"13:00"}],"dom":null}},{"id":"IT10137","name":"Tutor Famiglia e Impresa","cap":"00118","civico":"","lat":41.812719,"lng":12.604211,"hours":{"lun":[{"o":"09:00","c":"13:30"},{"o":"14:30","c":"16:30"}],"mar":[{"o":"09:00","c":"13:30"},{"o":"14:30","c":"16:30"}],"mer":[{"o":"09:00","c":"13:30"},{"o":"14:30","c":"16:30"}],"gio":[{"o":"09:00","c":"13:30"},{"o":"14:30","c":"16:30"}],"ven":[{"o":"09:00","c":"13:30"},{"o":"14:30","c":"16:30"}],"sab":null,"dom":null}},{"id":"IT10145","name":"PoloGel Logistica","cap":"00044","civico":"24","lat":41.842298,"lng":12.65403,"hours":{"lun":[{"o":"09:00","c":"13:00"},{"o":"15:00","c":"17:00"}],"mar":[{"o":"09:00","c":"13:00"},{"o":"15:00","c":"17:00"}],"mer":[{"o":"09:00","c":"13:00"},{"o":"15:00","c":"17:00"}],"gio":[{"o":"09:00","c":"13:00"},{"o":"15:00","c":"17:00"}],"ven":[{"o":"09:00","c":"13:00"},{"o":"15:00","c":"17:00"}],"sab":null,"dom":null}},{"id":"IT10149","name":"G & T Travel","cap":"00122","civico":"119","lat":41.738316,"lng":12.286191,"hours":{"lun":[{"o":"09:00","c":"13:00"},{"o":"16:00","c":"19:30"}],"mar":[{"o":"09:00","c":"13:00"},{"o":"16:00","c":"19:30"}],"mer":[{"o":"09:00","c":"13:00"},{"o":"16:00","c":"19:30"}],"gio":[{"o":"09:00","c":"13:00"},{"o":"16:00","c":"19:30"}],"ven":[{"o":"09:00","c":"13:00"},{"o":"16:00","c":"19:30"}],"sab":[{"o":"09:00","c":"13:00"}],"dom":null}},{"id":"IT10157","name":"Compro Oro - Roma","cap":"00127","civico":"150","lat":41.790649,"lng":12.408217,"hours":{"lun":[{"o":"10:00","c":"18:00"}],"mar":[{"o":"10:00","c":"18:00"}],"mer":[{"o":"10:00","c":"18:00"}],"gio":[{"o":"10:00","c":"18:00"}],"ven":[{"o":"10:00","c":"18:00"}],"sab":null,"dom":null}},{"id":"IT10160","name":"Bar la Grotta","cap":"00071","civico":"89","lat":41.622634,"lng":12.465511,"hours":{"lun":[{"o":"05:30","c":"21:00"}],"mar":[{"o":"05:30","c":"21:00"}],"mer":[{"o":"05:30","c":"21:00"}],"gio":[{"o":"05:30","c":"21:00"}],"ven":[{"o":"05:30","c":"21:00"}],"sab":[{"o":"05:30","c":"21:00"}],"dom":[{"o":"05:30","c":"13:30"}]}},{"id":"IT10178","name":"Nuova Ottica Romanina","cap":"00173","civico":"8","lat":41.850971,"lng":12.599012,"hours":{"lun":[{"o":"10:00","c":"20:00"}],"mar":[{"o":"10:00","c":"20:00"}],"mer":[{"o":"10:00","c":"20:00"}],"gio":[{"o":"10:00","c":"20:00"}],"ven":[{"o":"10:00","c":"20:00"}],"sab":[{"o":"10:00","c":"20:00"}],"dom":[{"o":"10:00","c":"20:00"}]}},{"id":"IT10184","name":"Ecomlog Srl","cap":"00072","civico":"","lat":41.708812,"lng":12.632442,"hours":{"lun":[{"o":"10:00","c":"13:00"},{"o":"14:00","c":"17:00"}],"mar":[{"o":"10:00","c":"13:00"},{"o":"14:00","c":"17:00"}],"mer":[{"o":"10:00","c":"13:00"},{"o":"14:00","c":"17:00"}],"gio":[{"o":"10:00","c":"13:00"},{"o":"14:00","c":"17:00"}],"ven":[{"o":"10:00","c":"13:00"},{"o":"14:00","c":"17:00"}],"sab":null,"dom":null}},{"id":"IT10247","name":"La Maison di Silvana","cap":"00048","civico":"149","lat":41.460502,"lng":12.656406,"hours":{"lun":[{"o":"08:30","c":"13:00"},{"o":"16:30","c":"19:30"}],"mar":[{"o":"08:30","c":"13:00"},{"o":"16:30","c":"19:30"}],"mer":[{"o":"08:30","c":"13:00"},{"o":"16:30","c":"19:30"}],"gio":[{"o":"08:30","c":"13:00"},{"o":"16:30","c":"19:30"}],"ven":[{"o":"08:30","c":"13:00"},{"o":"16:30","c":"19:30"}],"sab":[{"o":"08:30","c":"13:00"},{"o":"16:30","c":"19:30"}],"dom":null}},{"id":"IT10248","name":"Cartoleria","cap":"00141","civico":"70","lat":41.939488,"lng":12.5359,"hours":{"lun":[{"o":"08:00","c":"13:00"},{"o":"15:30","c":"19:00"}],"mar":[{"o":"08:00","c":"13:00"},{"o":"15:30","c":"19:00"}],"mer":[{"o":"08:00","c":"13:00"},{"o":"15:30","c":"19:00"}],"gio":[{"o":"08:00","c":"13:00"},{"o":"15:30","c":"19:00"}],"ven":[{"o":"08:00","c":"13:00"},{"o":"15:30","c":"19:00"}],"sab":[{"o":"08:00","c":"13:00"},{"o":"15:30","c":"19:00"}],"dom":null}},{"id":"IT10251","name":"Cartolibreria Ink","cap":"00168","civico":"6a","lat":41.922989,"lng":12.417906,"hours":{"lun":[{"o":"08:00","c":"13:00"},{"o":"16:00","c":"19:30"}],"mar":[{"o":"08:00","c":"13:00"},{"o":"16:00","c":"19:30"}],"mer":[{"o":"08:00","c":"13:00"},{"o":"16:00","c":"19:30"}],"gio":[{"o":"08:00","c":"13:00"},{"o":"16:00","c":"19:30"}],"ven":[{"o":"08:00","c":"13:00"},{"o":"16:00","c":"19:30"}],"sab":[{"o":"09:00","c":"13:00"}],"dom":null}},{"id":"IT10268","name":"Il Mondo delle Cartucce","cap":"00041","civico":"209/211","lat":41.723079,"lng":12.605689,"hours":{"lun":[{"o":"09:00","c":"13:00"},{"o":"16:30","c":"19:30"}],"mar":[{"o":"09:00","c":"13:00"},{"o":"16:30","c":"19:30"}],"mer":[{"o":"09:00","c":"13:00"},{"o":"16:30","c":"19:30"}],"gio":[{"o":"09:00","c":"13:00"},{"o":"16:30","c":"19:30"}],"ven":[{"o":"09:00","c":"13:00"},{"o":"16:30","c":"19:30"}],"sab":[{"o":"09:00","c":"13:00"},{"o":"16:00","c":"19:00"}],"dom":null}},{"id":"IT10276","name":"Buzzoli","cap":"00185","civico":"97/98","lat":41.891178,"lng":12.502592,"hours":{"lun":[{"o":"09:00","c":"19:30"}],"mar":[{"o":"09:00","c":"19:30"}],"mer":[{"o":"09:00","c":"19:30"}],"gio":[{"o":"09:00","c":"19:30"}],"ven":[{"o":"09:00","c":"19:30"}],"sab":[{"o":"09:00","c":"13:00"},{"o":"15:30","c":"19:30"}],"dom":null}},{"id":"IT10280","name":"Pensieri e Parole","cap":"00041","civico":"69","lat":41.725455,"lng":12.654053,"hours":{"lun":[{"o":"16:00","c":"18:00"}],"mar":[{"o":"10:00","c":"13:00"},{"o":"16:00","c":"19:00"}],"mer":[{"o":"16:00","c":"19:00"}],"gio":[{"o":"11:00","c":"13:00"},{"o":"16:00","c":"19:00"}],"ven":[{"o":"10:00","c":"13:00"},{"o":"16:00","c":"18:00"}],"sab":null,"dom":null}},{"id":"IT10289","name":"Qualità Ufficio - BUFFETTI","cap":"00184","civico":"73","lat":41.897733,"lng":12.489668,"hours":{"lun":[{"o":"09:30","c":"13:00"},{"o":"15:00","c":"18:00"}],"mar":[{"o":"09:30","c":"13:00"},{"o":"15:00","c":"18:00"}],"mer":[{"o":"09:30","c":"13:00"},{"o":"15:00","c":"18:00"}],"gio":[{"o":"09:30","c":"13:00"},{"o":"15:00","c":"18:00"}],"ven":[{"o":"09:30","c":"13:00"},{"o":"15:00","c":"18:00"}],"sab":null,"dom":null}},{"id":"IT10299","name":"Carta Penna & Fantasie","cap":"00135","civico":"258","lat":41.950587,"lng":12.395733,"hours":{"lun":[{"o":"09:00","c":"13:00"},{"o":"16:00","c":"20:00"}],"mar":[{"o":"09:00","c":"13:00"},{"o":"16:00","c":"20:00"}],"mer":[{"o":"09:00","c":"13:00"},{"o":"16:00","c":"20:00"}],"gio":[{"o":"09:00","c":"13:00"},{"o":"16:00","c":"20:00"}],"ven":[{"o":"09:00","c":"13:00"},{"o":"16:00","c":"20:00"}],"sab":[{"o":"09:00","c":"13:00"},{"o":"16:00","c":"20:00"}],"dom":null}},{"id":"IT10300","name":"Geca Tour","cap":"00171","civico":"17/19","lat":41.893623,"lng":12.555289,"hours":{"lun":[{"o":"10:00","c":"13:00"},{"o":"16:00","c":"19:00"}],"mar":[{"o":"10:00","c":"13:00"},{"o":"16:00","c":"19:00"}],"mer":[{"o":"10:00","c":"13:00"},{"o":"16:00","c":"19:00"}],"gio":[{"o":"10:00","c":"13:00"},{"o":"16:00","c":"19:00"}],"ven":[{"o":"10:00","c":"13:00"},{"o":"16:00","c":"19:00"}],"sab":[{"o":"10:00","c":"13:00"}],"dom":null}},{"id":"IT10403","name":"Mail Boxes Etc.-Roma via Genzano","cap":"00179","civico":"","lat":41.870473,"lng":12.532414,"hours":{"lun":[{"o":"08:30","c":"18:30"}],"mar":[{"o":"08:30","c":"18:30"}],"mer":[{"o":"08:30","c":"18:30"}],"gio":[{"o":"08:30","c":"18:30"}],"ven":[{"o":"08:30","c":"18:30"}],"sab":null,"dom":null}},{"id":"IT10424","name":"Mail Boxes Etc. Ciampino","cap":"00043","civico":"","lat":41.798577,"lng":12.604138,"hours":{"lun":[{"o":"09:00","c":"18:00"}],"mar":[{"o":"09:00","c":"18:00"}],"mer":[{"o":"09:00","c":"18:00"}],"gio":[{"o":"09:00","c":"18:00"}],"ven":[{"o":"09:00","c":"18:00"}],"sab":[{"o":"09:30","c":"12:30"}],"dom":null}},{"id":"IT10441","name":"Libraria","cap":"00164","civico":"348","lat":41.877707,"lng":12.426173,"hours":{"lun":[{"o":"07:30","c":"13:00"},{"o":"16:00","c":"19:30"}],"mar":[{"o":"07:30","c":"13:00"},{"o":"16:00","c":"19:30"}],"mer":[{"o":"07:30","c":"13:00"},{"o":"16:00","c":"19:30"}],"gio":[{"o":"07:30","c":"13:00"},{"o":"16:00","c":"19:30"}],"ven":[{"o":"07:30","c":"13:00"},{"o":"16:00","c":"19:30"}],"sab":null,"dom":null}},{"id":"IT10461","name":"Mail Boxes Etc-Roma V.le Rizzieri","cap":"00173","civico":"204 E","lat":41.852239,"lng":12.589927,"hours":{"lun":[{"o":"10:00","c":"17:00"}],"mar":[{"o":"10:00","c":"17:00"}],"mer":[{"o":"10:00","c":"17:00"}],"gio":[{"o":"10:00","c":"17:00"}],"ven":[{"o":"10:00","c":"17:00"}],"sab":null,"dom":null}},{"id":"IT10479","name":"Cartoleria Paperino","cap":"00176","civico":"","lat":41.89081,"lng":12.52793,"hours":{"lun":[{"o":"09:00","c":"13:00"},{"o":"16:00","c":"19:00"}],"mar":[{"o":"09:00","c":"13:00"},{"o":"16:00","c":"19:00"}],"mer":[{"o":"09:00","c":"13:00"},{"o":"16:00","c":"19:00"}],"gio":[{"o":"09:00","c":"13:00"},{"o":"16:00","c":"19:00"}],"ven":[{"o":"09:00","c":"13:00"},{"o":"16:00","c":"19:00"}],"sab":null,"dom":null}},{"id":"IT10488","name":"Tabacchi-Roma3","cap":"00141","civico":"56","lat":41.94422,"lng":12.52147,"hours":{"lun":[{"o":"07:30","c":"13:30"},{"o":"16:00","c":"19:30"}],"mar":[{"o":"07:30","c":"13:30"},{"o":"16:00","c":"19:30"}],"mer":[{"o":"07:30","c":"13:30"},{"o":"16:00","c":"19:30"}],"gio":[{"o":"07:30","c":"13:30"},{"o":"16:00","c":"19:30"}],"ven":[{"o":"07:30","c":"13:30"},{"o":"16:00","c":"19:30"}],"sab":[{"o":"07:30","c":"13:30"},{"o":"16:00","c":"19:30"}],"dom":null}},{"id":"IT10492","name":"Prink #618","cap":"00133","civico":"34","lat":41.867942,"lng":12.631092,"hours":{"lun":[{"o":"09:00","c":"13:00"},{"o":"16:30","c":"19:30"}],"mar":[{"o":"09:00","c":"13:00"},{"o":"16:30","c":"19:30"}],"mer":[{"o":"09:00","c":"13:00"},{"o":"16:30","c":"19:30"}],"gio":[{"o":"09:00","c":"13:00"},{"o":"16:30","c":"19:30"}],"ven":[{"o":"09:00","c":"13:00"},{"o":"16:30","c":"19:30"}],"sab":null,"dom":null}},{"id":"IT10499","name":"Bricolegno srl - Il fai da te","cap":"00167","civico":"122","lat":41.904924,"lng":12.43758,"hours":{"lun":[{"o":"08:45","c":"13:00"},{"o":"15:30","c":"19:00"}],"mar":[{"o":"08:45","c":"13:00"},{"o":"15:30","c":"19:00"}],"mer":[{"o":"08:45","c":"13:00"},{"o":"15:30","c":"19:00"}],"gio":[{"o":"08:45","c":"13:00"},{"o":"15:30","c":"19:00"}],"ven":[{"o":"08:45","c":"13:00"},{"o":"15:30","c":"19:00"}],"sab":[{"o":"08:45","c":"13:00"}],"dom":null}},{"id":"IT10520","name":"Il Gabbiano- Mondadori Point","cap":"00042","civico":"288","lat":41.502682,"lng":12.587474,"hours":{"lun":[{"o":"08:00","c":"13:00"},{"o":"16:00","c":"20:00"}],"mar":[{"o":"08:00","c":"13:00"},{"o":"16:00","c":"20:00"}],"mer":[{"o":"08:00","c":"13:00"},{"o":"16:00","c":"20:00"}],"gio":[{"o":"08:00","c":"13:00"},{"o":"16:00","c":"20:00"}],"ven":[{"o":"08:00","c":"13:00"},{"o":"16:00","c":"20:00"}],"sab":[{"o":"08:00","c":"13:00"},{"o":"16:00","c":"20:00"}],"dom":[{"o":"08:00","c":"13:00"}]}},{"id":"IT10527","name":"Photo Postal Press","cap":"00133","civico":"101","lat":41.86727,"lng":12.649316,"hours":{"lun":[{"o":"10:00","c":"13:30"},{"o":"15:00","c":"18:00"}],"mar":[{"o":"10:00","c":"13:30"},{"o":"15:00","c":"18:00"}],"mer":[{"o":"10:00","c":"13:30"},{"o":"15:00","c":"18:00"}],"gio":[{"o":"10:00","c":"13:30"},{"o":"15:00","c":"18:00"}],"ven":[{"o":"10:00","c":"13:30"},{"o":"15:00","c":"18:00"}],"sab":null,"dom":null}},{"id":"IT10539","name":"Ragno Cartoleria","cap":"00148","civico":"1471","lat":41.817939,"lng":12.346209,"hours":{"lun":[{"o":"07:30","c":"13:30"},{"o":"15:30","c":"19:30"}],"mar":[{"o":"07:30","c":"13:30"},{"o":"15:30","c":"19:30"}],"mer":[{"o":"07:30","c":"13:30"},{"o":"15:30","c":"19:30"}],"gio":[{"o":"07:30","c":"13:30"},{"o":"15:30","c":"19:30"}],"ven":[{"o":"07:30","c":"13:30"},{"o":"15:30","c":"19:30"}],"sab":[{"o":"07:30","c":"13:30"},{"o":"15:30","c":"19:30"}],"dom":null}},{"id":"IT10581","name":"Stampa Mat.Ta.","cap":"00076","civico":"30","lat":41.727463,"lng":12.834929,"hours":{"lun":[{"o":"08:30","c":"13:00"},{"o":"16:30","c":"19:30"}],"mar":[{"o":"08:30","c":"13:00"},{"o":"16:30","c":"19:30"}],"mer":[{"o":"08:30","c":"13:00"},{"o":"16:30","c":"19:30"}],"gio":null,"ven":[{"o":"08:30","c":"00:00"},{"o":"16:30","c":"19:30"}],"sab":[{"o":"09:00","c":"13:00"}],"dom":null}},{"id":"IT10606","name":"Buffetti F.E.C srl","cap":"00191","civico":"16","lat":41.947332,"lng":12.470172,"hours":{"lun":[{"o":"09:00","c":"13:00"},{"o":"15:00","c":"19:00"}],"mar":[{"o":"09:00","c":"13:00"},{"o":"15:00","c":"19:00"}],"mer":[{"o":"09:00","c":"13:00"},{"o":"15:00","c":"19:00"}],"gio":[{"o":"09:00","c":"13:00"},{"o":"15:00","c":"19:00"}],"ven":[{"o":"09:00","c":"13:00"},{"o":"15:00","c":"19:00"}],"sab":[{"o":"09:00","c":"13:00"}],"dom":null}},{"id":"IT10617","name":"Mail Boxes Etc. - Pomezia","cap":"00071","civico":"6","lat":41.67679,"lng":12.503484,"hours":{"lun":[{"o":"09:00","c":"13:00"},{"o":"15:30","c":"18:00"}],"mar":[{"o":"09:00","c":"13:00"},{"o":"15:30","c":"18:00"}],"mer":[{"o":"09:00","c":"13:00"},{"o":"15:30","c":"18:00"}],"gio":[{"o":"09:00","c":"13:00"},{"o":"15:30","c":"18:00"}],"ven":[{"o":"09:00","c":"13:00"},{"o":"15:30","c":"18:00"}],"sab":null,"dom":null}},{"id":"IT10669","name":"WASH DOG self service H24","cap":"00071","civico":"29","lat":41.622621,"lng":12.464286,"hours":{"lun":[{"o":"16:00","c":"19:00"}],"mar":[{"o":"10:00","c":"13:00"},{"o":"16:00","c":"19:00"}],"mer":[{"o":"10:00","c":"13:00"},{"o":"16:00","c":"19:00"}],"gio":[{"o":"10:00","c":"13:00"},{"o":"16:00","c":"19:00"}],"ven":[{"o":"10:00","c":"13:00"},{"o":"16:00","c":"19:00"}],"sab":null,"dom":null}},{"id":"IT10693","name":"Sprint Ufficio - EDI PRO","cap":"00155","civico":"1465","lat":41.914533,"lng":12.570193,"hours":{"lun":[{"o":"09:00","c":"13:00"},{"o":"15:30","c":"19:30"}],"mar":[{"o":"09:00","c":"13:00"},{"o":"15:30","c":"19:30"}],"mer":[{"o":"09:00","c":"13:00"},{"o":"15:30","c":"19:30"}],"gio":[{"o":"09:00","c":"13:00"},{"o":"15:30","c":"19:30"}],"ven":[{"o":"09:00","c":"13:00"},{"o":"15:30","c":"19:30"}],"sab":[{"o":"09:00","c":"13:00"}],"dom":null}},{"id":"IT10718","name":"Tatalandia","cap":"00143","civico":"109","lat":41.814995,"lng":12.506469,"hours":{"lun":[{"o":"09:00","c":"13:30"},{"o":"14:30","c":"19:30"}],"mar":[{"o":"09:00","c":"13:30"},{"o":"14:30","c":"19:30"}],"mer":[{"o":"09:00","c":"13:30"},{"o":"14:30","c":"19:30"}],"gio":[{"o":"09:00","c":"13:30"},{"o":"14:30","c":"19:30"}],"ven":[{"o":"09:00","c":"13:30"},{"o":"14:30","c":"19:30"}],"sab":[{"o":"09:30","c":"13:30"}],"dom":null}},{"id":"IT10744","name":"Tecno Service","cap":"00176","civico":"","lat":41.883009,"lng":12.537811,"hours":{"lun":[{"o":"09:30","c":"13:00"}],"mar":[{"o":"09:30","c":"13:00"}],"mer":[{"o":"09:30","c":"13:00"}],"gio":[{"o":"09:30","c":"13:00"}],"ven":[{"o":"09:30","c":"13:00"}],"sab":null,"dom":null}},{"id":"IT10746","name":"Video Top","cap":"00125","civico":"71","lat":41.780774,"lng":12.363836,"hours":{"lun":[{"o":"09:00","c":"14:00"},{"o":"16:00","c":"21:00"}],"mar":[{"o":"09:00","c":"14:00"},{"o":"16:00","c":"21:00"}],"mer":[{"o":"09:00","c":"14:00"},{"o":"16:00","c":"21:00"}],"gio":[{"o":"09:00","c":"14:00"},{"o":"16:00","c":"21:00"}],"ven":[{"o":"09:00","c":"14:00"},{"o":"16:00","c":"21:00"}],"sab":[{"o":"09:00","c":"14:00"},{"o":"16:00","c":"21:00"}],"dom":[{"o":"10:00","c":"14:00"}]}},{"id":"IT10792","name":"Riparazioni Telefonia Pigneto","cap":"00176","civico":"","lat":41.882916,"lng":12.53815,"hours":{"lun":[{"o":"09:30","c":"13:00"},{"o":"15:00","c":"18:00"}],"mar":[{"o":"09:30","c":"13:00"},{"o":"15:00","c":"18:00"}],"mer":[{"o":"09:30","c":"13:00"},{"o":"15:00","c":"18:00"}],"gio":[{"o":"09:30","c":"13:00"},{"o":"15:00","c":"18:00"}],"ven":[{"o":"09:30","c":"13:00"},{"o":"15:00","c":"18:00"}],"sab":[{"o":"09:30","c":"13:00"}],"dom":null}},{"id":"IT10795","name":"Agenzia 12","cap":"00146","civico":"39","lat":41.862977,"lng":12.470584,"hours":{"lun":[{"o":"09:00","c":"13:00"},{"o":"14:00","c":"18:00"}],"mar":[{"o":"09:00","c":"13:00"},{"o":"14:00","c":"18:00"}],"mer":[{"o":"09:00","c":"13:00"},{"o":"14:00","c":"18:00"}],"gio":[{"o":"09:00","c":"13:00"},{"o":"14:00","c":"18:00"}],"ven":[{"o":"09:00","c":"13:00"},{"o":"14:00","c":"18:00"}],"sab":null,"dom":null}},{"id":"IT10804","name":"Linea Ufficio e Servizi","cap":"00054","civico":"11","lat":41.860073,"lng":12.202967,"hours":{"lun":[{"o":"09:00","c":"13:00"},{"o":"16:00","c":"19:00"}],"mar":[{"o":"09:00","c":"13:00"},{"o":"16:00","c":"19:00"}],"mer":[{"o":"09:00","c":"13:00"},{"o":"16:00","c":"19:00"}],"gio":[{"o":"09:00","c":"13:00"},{"o":"16:00","c":"19:00"}],"ven":[{"o":"09:00","c":"13:00"},{"o":"16:00","c":"19:00"}],"sab":[{"o":"09:00","c":"13:00"}],"dom":null}},{"id":"IT10806","name":"Wonderphone","cap":"00181","civico":"62","lat":41.873171,"lng":12.528089,"hours":{"lun":[{"o":"09:00","c":"18:30"}],"mar":[{"o":"09:00","c":"18:30"}],"mer":[{"o":"09:00","c":"18:30"}],"gio":[{"o":"09:00","c":"18:30"}],"ven":[{"o":"09:00","c":"18:30"}],"sab":[{"o":"09:00","c":"14:00"}],"dom":null}},{"id":"IT10808","name":"Libreria Gela","cap":"00182","civico":"43/45","lat":41.87987,"lng":12.519894,"hours":{"lun":[{"o":"10:00","c":"13:00"},{"o":"16:00","c":"19:30"}],"mar":[{"o":"10:00","c":"13:00"},{"o":"16:00","c":"19:30"}],"mer":[{"o":"10:00","c":"13:00"},{"o":"16:00","c":"19:30"}],"gio":[{"o":"10:00","c":"13:00"},{"o":"16:00","c":"19:30"}],"ven":[{"o":"10:00","c":"13:00"},{"o":"16:00","c":"19:30"}],"sab":[{"o":"10:00","c":"13:00"}],"dom":null}},{"id":"IT10809","name":"Il Terzo Millennio","cap":"00156","civico":"38","lat":41.926063,"lng":12.570949,"hours":{"lun":[{"o":"09:15","c":"13:00"},{"o":"15:30","c":"19:30"}],"mar":[{"o":"09:15","c":"13:00"},{"o":"15:30","c":"19:30"}],"mer":[{"o":"09:15","c":"13:00"},{"o":"15:30","c":"19:30"}],"gio":[{"o":"09:15","c":"13:00"},{"o":"15:30","c":"19:30"}],"ven":[{"o":"09:15","c":"13:00"},{"o":"15:30","c":"19:30"}],"sab":[{"o":"09:15","c":"13:00"}],"dom":null}},{"id":"IT10812","name":"La Nuova Posta - Tivoli","cap":"00019","civico":"113","lat":41.956426,"lng":12.803739,"hours":{"lun":[{"o":"08:30","c":"13:00"},{"o":"16:00","c":"18:30"}],"mar":[{"o":"08:30","c":"13:00"},{"o":"16:00","c":"18:30"}],"mer":[{"o":"08:30","c":"13:00"},{"o":"16:00","c":"18:30"}],"gio":[{"o":"08:30","c":"13:00"},{"o":"16:00","c":"18:30"}],"ven":[{"o":"08:30","c":"13:00"},{"o":"16:00","c":"18:30"}],"sab":[{"o":"09:00","c":"12:30"}],"dom":null}},{"id":"IT10813","name":"Guidi Srls","cap":"00169","civico":"16","lat":41.866323,"lng":12.595027,"hours":{"lun":[{"o":"08:00","c":"13:00"}],"mar":[{"o":"08:00","c":"13:00"}],"mer":[{"o":"08:00","c":"13:00"}],"gio":[{"o":"08:00","c":"13:00"}],"ven":[{"o":"08:00","c":"13:00"}],"sab":null,"dom":null}},{"id":"IT10814","name":"Dierre Lido-Ricambi Elettrod.","cap":"00121","civico":"44/46","lat":41.732838,"lng":12.273618,"hours":{"lun":[{"o":"08:30","c":"13:00"},{"o":"15:30","c":"19:00"}],"mar":[{"o":"08:30","c":"13:00"},{"o":"15:30","c":"19:00"}],"mer":[{"o":"08:30","c":"13:00"},{"o":"15:30","c":"19:00"}],"gio":[{"o":"08:30","c":"13:00"},{"o":"15:30","c":"19:00"}],"ven":[{"o":"08:30","c":"13:00"},{"o":"15:30","c":"19:00"}],"sab":[{"o":"08:30","c":"13:00"}],"dom":null}},{"id":"IT10815","name":"Punto Scuola","cap":"00122","civico":"68","lat":41.738826,"lng":12.287191,"hours":{"lun":[{"o":"07:45","c":"13:00"},{"o":"15:30","c":"20:00"}],"mar":[{"o":"07:45","c":"13:00"},{"o":"15:30","c":"20:00"}],"mer":[{"o":"07:45","c":"13:00"},{"o":"15:30","c":"20:00"}],"gio":[{"o":"07:45","c":"13:00"},{"o":"15:30","c":"20:00"}],"ven":[{"o":"07:45","c":"13:00"},{"o":"15:30","c":"20:00"}],"sab":[{"o":"07:45","c":"13:00"},{"o":"15:30","c":"20:00"}],"dom":null}},{"id":"IT10816","name":"Cartolibreria - CopyWrite","cap":"00142","civico":"4","lat":41.830202,"lng":12.488025,"hours":{"lun":[{"o":"07:30","c":"13:00"},{"o":"15:30","c":"19:30"}],"mar":[{"o":"07:30","c":"13:00"},{"o":"15:30","c":"19:30"}],"mer":[{"o":"07:30","c":"13:00"},{"o":"15:30","c":"19:30"}],"gio":[{"o":"07:30","c":"13:00"},{"o":"15:30","c":"19:30"}],"ven":[{"o":"07:30","c":"13:00"},{"o":"15:30","c":"19:30"}],"sab":[{"o":"07:30","c":"13:00"},{"o":"15:30","c":"19:30"}],"dom":null}},{"id":"IT10821","name":"Ottica Ceccaglia","cap":"00139","civico":"7","lat":41.95799,"lng":12.523466,"hours":{"lun":[{"o":"09:00","c":"13:00"},{"o":"16:00","c":"19:00"}],"mar":[{"o":"09:00","c":"13:00"},{"o":"16:00","c":"19:00"}],"mer":[{"o":"09:00","c":"13:00"},{"o":"16:00","c":"19:00"}],"gio":[{"o":"09:00","c":"13:00"},{"o":"16:00","c":"19:00"}],"ven":[{"o":"09:00","c":"13:00"},{"o":"16:00","c":"19:00"}],"sab":[{"o":"09:00","c":"13:00"},{"o":"16:00","c":"19:00"}],"dom":null}},{"id":"IT10823","name":"Giangy Pets","cap":"00155","civico":"57","lat":41.900448,"lng":12.590893,"hours":{"lun":[{"o":"09:00","c":"13:00"},{"o":"16:30","c":"19:30"}],"mar":[{"o":"09:00","c":"13:00"},{"o":"16:30","c":"19:30"}],"mer":[{"o":"09:00","c":"13:00"},{"o":"16:30","c":"19:30"}],"gio":[{"o":"09:00","c":"13:00"},{"o":"16:30","c":"19:30"}],"ven":[{"o":"09:00","c":"13:00"},{"o":"16:30","c":"19:30"}],"sab":[{"o":"09:00","c":"13:00"}],"dom":null}},{"id":"IT10826","name":"Prink","cap":"00181","civico":"","lat":41.872908,"lng":12.531314,"hours":{"lun":[{"o":"09:00","c":"13:30"},{"o":"15:30","c":"19:30"}],"mar":[{"o":"09:00","c":"13:30"},{"o":"15:30","c":"19:30"}],"mer":[{"o":"09:00","c":"13:30"},{"o":"15:30","c":"19:30"}],"gio":[{"o":"09:00","c":"13:30"},{"o":"15:30","c":"19:30"}],"ven":[{"o":"09:00","c":"13:30"},{"o":"15:30","c":"19:30"}],"sab":[{"o":"09:00","c":"13:00"},{"o":"16:00","c":"19:30"}],"dom":null}},{"id":"IT10828","name":"Prink-Cartucce per stampanti-Roma","cap":"00159","civico":"602/C","lat":41.908546,"lng":12.544815,"hours":{"lun":[{"o":"09:00","c":"13:30"},{"o":"15:30","c":"20:00"}],"mar":[{"o":"09:00","c":"13:30"},{"o":"15:30","c":"20:00"}],"mer":[{"o":"09:00","c":"13:30"},{"o":"15:30","c":"20:00"}],"gio":[{"o":"09:00","c":"13:30"},{"o":"15:30","c":"20:00"}],"ven":[{"o":"09:00","c":"13:30"},{"o":"15:30","c":"20:00"}],"sab":[{"o":"09:00","c":"13:00"},{"o":"16:00","c":"19:30"}],"dom":null}},{"id":"IT10829","name":"Cartoleria","cap":"00189","civico":"137","lat":41.973116,"lng":12.440388,"hours":{"lun":[{"o":"07:30","c":"13:00"},{"o":"16:00","c":"19:30"}],"mar":[{"o":"07:30","c":"13:00"},{"o":"16:00","c":"19:30"}],"mer":[{"o":"07:30","c":"13:00"},{"o":"16:00","c":"19:30"}],"gio":[{"o":"07:30","c":"13:00"},{"o":"16:00","c":"19:30"}],"ven":[{"o":"07:30","c":"13:00"},{"o":"16:00","c":"19:30"}],"sab":[{"o":"07:30","c":"13:00"},{"o":"16:00","c":"19:30"}],"dom":null}},{"id":"IT10832","name":"Cartucce per stampanti","cap":"00126","civico":"9","lat":41.785316,"lng":12.331735,"hours":{"lun":[{"o":"09:00","c":"13:00"},{"o":"16:00","c":"19:30"}],"mar":[{"o":"09:00","c":"13:00"},{"o":"16:00","c":"19:30"}],"mer":[{"o":"09:00","c":"13:00"},{"o":"16:00","c":"19:30"}],"gio":[{"o":"09:00","c":"13:00"},{"o":"16:00","c":"19:30"}],"ven":[{"o":"09:00","c":"13:00"},{"o":"16:00","c":"19:30"}],"sab":null,"dom":null}},{"id":"IT10835","name":"Rieldo - Ricambi Elettrodomestici","cap":"00171","civico":"238C","lat":41.888179,"lng":12.565519,"hours":{"lun":[{"o":"09:00","c":"13:00"},{"o":"15:30","c":"19:00"}],"mar":[{"o":"09:00","c":"13:00"},{"o":"15:30","c":"19:00"}],"mer":[{"o":"09:00","c":"13:00"},{"o":"15:30","c":"19:00"}],"gio":[{"o":"09:00","c":"13:00"},{"o":"15:30","c":"19:00"}],"ven":[{"o":"09:00","c":"13:00"},{"o":"15:30","c":"19:00"}],"sab":[{"o":"09:00","c":"13:00"}],"dom":null}},{"id":"IT10839","name":"CRM Elettronica","cap":"00174","civico":"","lat":41.852373,"lng":12.564619,"hours":{"lun":[{"o":"09:00","c":"13:00"},{"o":"14:00","c":"18:00"}],"mar":[{"o":"09:00","c":"13:00"},{"o":"14:00","c":"18:00"}],"mer":[{"o":"09:00","c":"13:00"},{"o":"14:00","c":"18:00"}],"gio":[{"o":"09:00","c":"13:00"},{"o":"14:00","c":"18:00"}],"ven":[{"o":"09:00","c":"13:00"},{"o":"14:00","c":"18:00"}],"sab":null,"dom":null}},{"id":"IT10845","name":"Roma Service","cap":"00145","civico":"208","lat":41.853543,"lng":12.480043,"hours":{"lun":[{"o":"09:00","c":"13:00"},{"o":"15:00","c":"19:00"}],"mar":[{"o":"09:00","c":"13:00"},{"o":"15:00","c":"19:00"}],"mer":[{"o":"09:00","c":"13:00"},{"o":"15:00","c":"19:00"}],"gio":[{"o":"09:00","c":"13:00"},{"o":"15:00","c":"19:00"}],"ven":[{"o":"09:00","c":"13:00"},{"o":"15:00","c":"19:00"}],"sab":null,"dom":null}},{"id":"IT10846","name":"World Air Sea Travel","cap":"00126","civico":"40","lat":41.778328,"lng":12.342602,"hours":{"lun":[{"o":"09:30","c":"13:00"},{"o":"16:00","c":"19:00"}],"mar":[{"o":"09:30","c":"13:00"},{"o":"16:00","c":"19:00"}],"mer":[{"o":"09:30","c":"13:00"},{"o":"16:00","c":"19:00"}],"gio":[{"o":"09:30","c":"13:00"},{"o":"16:00","c":"19:00"}],"ven":[{"o":"09:30","c":"13:00"},{"o":"16:00","c":"19:00"}],"sab":null,"dom":null}},{"id":"IT10847","name":"Roma senza Glutine","cap":"00153","civico":"237/B","lat":41.8772,"lng":12.465734,"hours":{"lun":[{"o":"09:00","c":"13:30"},{"o":"15:30","c":"19:00"}],"mar":[{"o":"09:00","c":"13:30"},{"o":"15:30","c":"19:00"}],"mer":[{"o":"09:00","c":"13:30"},{"o":"15:30","c":"19:00"}],"gio":[{"o":"09:00","c":"13:30"},{"o":"15:30","c":"19:00"}],"ven":[{"o":"09:00","c":"13:30"},{"o":"15:30","c":"19:00"}],"sab":[{"o":"09:00","c":"19:30"}],"dom":null}},{"id":"IT10849","name":"Control Time","cap":"00156","civico":"","lat":41.945122,"lng":12.569408,"hours":{"lun":[{"o":"09:00","c":"13:00"},{"o":"14:00","c":"18:00"}],"mar":[{"o":"09:00","c":"13:00"},{"o":"14:00","c":"18:00"}],"mer":[{"o":"09:00","c":"13:00"},{"o":"14:00","c":"18:00"}],"gio":[{"o":"09:00","c":"13:00"},{"o":"14:00","c":"18:00"}],"ven":[{"o":"09:00","c":"13:00"},{"o":"14:00","c":"18:00"}],"sab":null,"dom":null}},{"id":"IT10866","name":"Eco Store-Cartucce per stampanti","cap":"00044","civico":"19","lat":41.808427,"lng":12.681293,"hours":{"lun":[{"o":"09:00","c":"13:00"},{"o":"16:00","c":"19:30"}],"mar":[{"o":"09:00","c":"13:00"},{"o":"16:00","c":"19:30"}],"mer":[{"o":"09:00","c":"13:00"},{"o":"16:00","c":"19:30"}],"gio":[{"o":"09:00","c":"13:00"},{"o":"16:00","c":"19:30"}],"ven":[{"o":"09:00","c":"13:00"},{"o":"16:00","c":"19:30"}],"sab":[{"o":"09:00","c":"13:00"},{"o":"16:00","c":"19:30"}],"dom":null}},{"id":"IT10878","name":"Open Area","cap":"00136","civico":"","lat":41.907642,"lng":12.445812,"hours":{"lun":[{"o":"12:00","c":"16:00"}],"mar":[{"o":"12:00","c":"16:00"}],"mer":[{"o":"12:00","c":"16:00"}],"gio":[{"o":"12:00","c":"16:00"}],"ven":[{"o":"12:00","c":"16:00"}],"sab":null,"dom":null}},{"id":"IT10879","name":"Spazio Idee - Roma","cap":"00175","civico":"132","lat":41.860437,"lng":12.558169,"hours":{"lun":[{"o":"10:00","c":"13:00"},{"o":"16:30","c":"19:30"}],"mar":[{"o":"10:00","c":"13:00"},{"o":"16:30","c":"19:30"}],"mer":[{"o":"10:00","c":"13:00"},{"o":"16:30","c":"19:30"}],"gio":[{"o":"10:00","c":"13:00"},{"o":"16:30","c":"19:30"}],"ven":[{"o":"10:00","c":"13:00"},{"o":"16:30","c":"19:30"}],"sab":null,"dom":null}},{"id":"IT10885","name":"Marco Technology","cap":"00055","civico":"","lat":41.951796,"lng":12.07812,"hours":{"lun":[{"o":"09:00","c":"13:00"},{"o":"16:00","c":"19:30"}],"mar":[{"o":"09:00","c":"13:00"},{"o":"16:00","c":"19:30"}],"mer":[{"o":"09:00","c":"13:00"},{"o":"16:00","c":"19:30"}],"gio":[{"o":"09:00","c":"13:00"},{"o":"16:00","c":"19:30"}],"ven":[{"o":"09:00","c":"13:00"},{"o":"16:00","c":"19:30"}],"sab":[{"o":"09:00","c":"13:00"},{"o":"16:00","c":"19:30"}],"dom":null}},{"id":"IT10889","name":"Poste Assicurazioni e...","cap":"00188","civico":"271","lat":42.006736,"lng":12.475464,"hours":{"lun":[{"o":"09:00","c":"13:00"},{"o":"15:30","c":"18:00"}],"mar":[{"o":"09:00","c":"13:00"},{"o":"15:30","c":"18:00"}],"mer":[{"o":"09:00","c":"13:00"},{"o":"15:30","c":"18:00"}],"gio":[{"o":"09:00","c":"13:00"},{"o":"15:30","c":"18:00"}],"ven":[{"o":"09:00","c":"13:00"},{"o":"15:30","c":"18:00"}],"sab":[{"o":"09:00","c":"13:00"}],"dom":null}},{"id":"IT10891","name":"Eco Store - Roma","cap":"00198","civico":"27","lat":41.922382,"lng":12.504069,"hours":{"lun":[{"o":"09:30","c":"13:00"},{"o":"15:00","c":"19:00"}],"mar":[{"o":"09:30","c":"13:00"},{"o":"15:00","c":"19:00"}],"mer":[{"o":"09:30","c":"13:00"},{"o":"15:00","c":"19:00"}],"gio":[{"o":"09:30","c":"13:00"},{"o":"15:00","c":"19:00"}],"ven":[{"o":"09:30","c":"13:00"},{"o":"15:00","c":"19:00"}],"sab":[{"o":"09:30","c":"13:00"}],"dom":null}},{"id":"IT10905","name":"Vetrina per la casa","cap":"00181","civico":"135","lat":41.879634,"lng":12.530817,"hours":{"lun":[{"o":"16:00","c":"19:30"}],"mar":[{"o":"09:30","c":"13:30"},{"o":"16:00","c":"19:30"}],"mer":[{"o":"09:30","c":"13:30"},{"o":"16:00","c":"19:30"}],"gio":[{"o":"09:30","c":"13:30"},{"o":"16:00","c":"19:30"}],"ven":[{"o":"09:30","c":"13:30"},{"o":"16:00","c":"19:30"}],"sab":[{"o":"09:30","c":"13:30"},{"o":"16:00","c":"19:30"}],"dom":null}},{"id":"IT10921","name":"Merceria Linda","cap":"00147","civico":"28","lat":41.85271,"lng":12.503227,"hours":{"lun":[{"o":"16:30","c":"19:00"}],"mar":[{"o":"09:30","c":"12:30"},{"o":"16:30","c":"19:00"}],"mer":[{"o":"09:30","c":"12:30"},{"o":"16:30","c":"19:00"}],"gio":[{"o":"09:30","c":"12:30"},{"o":"16:30","c":"19:00"}],"ven":[{"o":"09:30","c":"12:30"},{"o":"16:30","c":"19:00"}],"sab":null,"dom":null}},{"id":"IT10932","name":"GigaWatt Computers","cap":"00125","civico":"","lat":41.772346,"lng":12.358482,"hours":{"lun":[{"o":"10:00","c":"13:00"},{"o":"16:00","c":"20:00"}],"mar":[{"o":"10:00","c":"13:00"},{"o":"16:00","c":"20:00"}],"mer":[{"o":"10:00","c":"13:00"},{"o":"16:00","c":"20:00"}],"gio":[{"o":"10:00","c":"13:00"},{"o":"16:00","c":"20:00"}],"ven":[{"o":"10:00","c":"13:00"},{"o":"16:00","c":"20:00"}],"sab":[{"o":"10:00","c":"13:00"},{"o":"16:00","c":"20:00"}],"dom":null}},{"id":"IT10934","name":"Riparo Express-Roma","cap":"00157","civico":"","lat":41.909566,"lng":12.536748,"hours":{"lun":[{"o":"09:30","c":"18:30"}],"mar":[{"o":"09:30","c":"18:30"}],"mer":[{"o":"09:30","c":"18:30"}],"gio":[{"o":"09:30","c":"18:30"}],"ven":[{"o":"09:30","c":"18:30"}],"sab":null,"dom":null}},{"id":"IT10938","name":"Ferramenta Farnesina","cap":"00135","civico":"110","lat":41.941243,"lng":12.461797,"hours":{"lun":[{"o":"08:00","c":"13:00"},{"o":"15:30","c":"19:00"}],"mar":[{"o":"08:00","c":"13:00"},{"o":"15:30","c":"19:00"}],"mer":[{"o":"08:00","c":"13:00"},{"o":"15:30","c":"19:00"}],"gio":[{"o":"08:00","c":"13:00"},{"o":"15:30","c":"19:00"}],"ven":[{"o":"08:00","c":"13:00"},{"o":"15:30","c":"19:00"}],"sab":[{"o":"08:00","c":"13:00"}],"dom":null}},{"id":"IT10963","name":"A & F Servizi","cap":"00195","civico":"53 B","lat":41.912063,"lng":12.44944,"hours":{"lun":[{"o":"09:00","c":"13:00"},{"o":"14:00","c":"17:30"}],"mar":[{"o":"09:00","c":"13:00"},{"o":"14:00","c":"17:30"}],"mer":[{"o":"09:00","c":"13:00"},{"o":"14:00","c":"17:30"}],"gio":[{"o":"09:00","c":"13:00"},{"o":"14:00","c":"17:30"}],"ven":[{"o":"09:00","c":"15:00"}],"sab":null,"dom":null}},{"id":"IT11010","name":"Farmacia Masciotta","cap":"00169","civico":"","lat":41.863957,"lng":12.581507,"hours":{"lun":[{"o":"08:30","c":"13:00"},{"o":"16:00","c":"19:30"}],"mar":[{"o":"08:30","c":"13:00"},{"o":"16:00","c":"19:30"}],"mer":[{"o":"08:30","c":"13:00"},{"o":"16:00","c":"19:30"}],"gio":[{"o":"08:30","c":"13:00"},{"o":"16:00","c":"19:30"}],"ven":[{"o":"08:30","c":"13:00"},{"o":"16:00","c":"19:30"}],"sab":[{"o":"08:30","c":"13:00"}],"dom":null}},{"id":"IT11022","name":"Staf Business Center","cap":"00185","civico":"1","lat":41.90466,"lng":12.508576,"hours":{"lun":[{"o":"08:30","c":"18:30"}],"mar":[{"o":"08:30","c":"18:30"}],"mer":[{"o":"08:30","c":"18:30"}],"gio":[{"o":"08:30","c":"18:30"}],"ven":[{"o":"08:30","c":"18:30"}],"sab":null,"dom":null}},{"id":"IT11026","name":"Grafica e Stampa Roma","cap":"00179","civico":"30","lat":41.87378,"lng":12.513747,"hours":{"lun":[{"o":"10:00","c":"12:00"},{"o":"16:00","c":"19:00"}],"mar":[{"o":"10:00","c":"12:00"},{"o":"16:00","c":"19:00"}],"mer":[{"o":"10:00","c":"12:00"},{"o":"16:00","c":"19:00"}],"gio":[{"o":"10:00","c":"12:00"},{"o":"16:00","c":"19:00"}],"ven":[{"o":"10:00","c":"12:00"},{"o":"16:00","c":"19:00"}],"sab":null,"dom":null}},{"id":"IT11029","name":"Il Mago del cellulare e del PC","cap":"00172","civico":"","lat":41.88246,"lng":12.569237,"hours":{"lun":[{"o":"09:30","c":"12:30"},{"o":"16:00","c":"19:00"}],"mar":[{"o":"09:30","c":"12:30"},{"o":"16:00","c":"19:00"}],"mer":[{"o":"09:30","c":"12:30"},{"o":"16:00","c":"19:00"}],"gio":[{"o":"09:30","c":"12:30"},{"o":"16:00","c":"19:00"}],"ven":[{"o":"09:30","c":"12:30"},{"o":"16:00","c":"19:00"}],"sab":null,"dom":null}},{"id":"IT11041","name":"Filippo T. International","cap":"00121","civico":"135","lat":41.738661,"lng":12.281146,"hours":{"lun":[{"o":"10:00","c":"13:00"},{"o":"16:00","c":"19:00"}],"mar":[{"o":"10:00","c":"13:00"},{"o":"16:00","c":"19:00"}],"mer":[{"o":"10:00","c":"13:00"},{"o":"16:00","c":"19:00"}],"gio":[{"o":"10:00","c":"13:00"},{"o":"16:00","c":"19:00"}],"ven":[{"o":"10:00","c":"13:00"},{"o":"16:00","c":"19:00"}],"sab":null,"dom":null}},{"id":"IT11056","name":"Tabaccheria Petrolati","cap":"00149","civico":"","lat":41.859233,"lng":12.450045,"hours":{"lun":[{"o":"06:30","c":"20:00"}],"mar":[{"o":"06:30","c":"20:00"}],"mer":[{"o":"06:30","c":"20:00"}],"gio":[{"o":"06:30","c":"20:00"}],"ven":[{"o":"06:30","c":"20:00"}],"sab":[{"o":"06:30","c":"20:00"}],"dom":null}},{"id":"IT11058","name":"Bar Lavinia","cap":"00042","civico":"15","lat":41.498941,"lng":12.586589,"hours":{"lun":null,"mar":[{"o":"06:00","c":"20:00"}],"mer":[{"o":"06:00","c":"20:00"}],"gio":[{"o":"06:00","c":"20:00"}],"ven":[{"o":"06:00","c":"20:00"}],"sab":[{"o":"06:00","c":"20:00"}],"dom":[{"o":"06:00","c":"20:00"}]}},{"id":"IT11079","name":"HappyTec - Riparo Express","cap":"00177","civico":"","lat":41.898826,"lng":12.55993,"hours":{"lun":[{"o":"09:00","c":"13:00"},{"o":"15:00","c":"19:30"}],"mar":[{"o":"09:00","c":"13:00"},{"o":"15:00","c":"19:30"}],"mer":[{"o":"09:00","c":"13:00"},{"o":"15:00","c":"19:30"}],"gio":[{"o":"09:00","c":"13:00"},{"o":"15:00","c":"19:30"}],"ven":[{"o":"09:00","c":"13:00"},{"o":"15:00","c":"19:30"}],"sab":[{"o":"09:00","c":"13:00"}],"dom":null}},{"id":"IT11085","name":"Tabaccheria-Roma2","cap":"00123","civico":"69","lat":41.987106,"lng":12.40516,"hours":{"lun":[{"o":"07:30","c":"13:30"},{"o":"15:30","c":"20:00"}],"mar":[{"o":"07:30","c":"13:30"},{"o":"15:30","c":"20:00"}],"mer":[{"o":"07:30","c":"13:30"},{"o":"15:30","c":"20:00"}],"gio":[{"o":"07:30","c":"13:30"},{"o":"15:30","c":"20:00"}],"ven":[{"o":"07:30","c":"13:30"},{"o":"15:30","c":"20:00"}],"sab":[{"o":"07:30","c":"13:30"},{"o":"15:30","c":"20:00"}],"dom":null}},{"id":"IT11086","name":"Elletronic","cap":"00133","civico":"","lat":41.87413,"lng":12.61919,"hours":{"lun":[{"o":"09:00","c":"13:00"},{"o":"16:00","c":"20:00"}],"mar":[{"o":"09:00","c":"13:00"},{"o":"16:00","c":"20:00"}],"mer":[{"o":"09:00","c":"13:00"},{"o":"16:00","c":"20:00"}],"gio":[{"o":"09:00","c":"13:00"},{"o":"16:00","c":"20:00"}],"ven":[{"o":"09:00","c":"13:00"},{"o":"16:00","c":"20:00"}],"sab":[{"o":"09:00","c":"13:00"},{"o":"16:00","c":"20:00"}],"dom":null}},{"id":"IT11087","name":"Wind - Vodafone","cap":"00176","civico":"","lat":41.889403,"lng":12.534499,"hours":{"lun":[{"o":"09:00","c":"13:00"},{"o":"15:30","c":"19:30"}],"mar":[{"o":"09:00","c":"13:00"},{"o":"15:30","c":"19:30"}],"mer":[{"o":"09:00","c":"13:00"},{"o":"15:30","c":"19:30"}],"gio":[{"o":"09:00","c":"13:00"},{"o":"15:30","c":"19:30"}],"ven":[{"o":"09:00","c":"13:00"},{"o":"15:30","c":"19:30"}],"sab":[{"o":"09:00","c":"13:00"},{"o":"15:30","c":"19:30"}],"dom":null}},{"id":"IT11094","name":"Raeid Internet Point","cap":"00121","civico":"","lat":41.73458,"lng":12.2747,"hours":{"lun":[{"o":"09:00","c":"21:00"}],"mar":[{"o":"09:00","c":"21:00"}],"mer":[{"o":"09:00","c":"21:00"}],"gio":[{"o":"09:00","c":"21:00"}],"ven":[{"o":"09:00","c":"21:00"}],"sab":[{"o":"09:00","c":"21:00"}],"dom":[{"o":"09:00","c":"21:00"}]}},{"id":"IT11096","name":"Ferramenta Usev","cap":"00123","civico":"","lat":42.010613,"lng":12.378003,"hours":{"lun":[{"o":"07:30","c":"13:00"},{"o":"15:30","c":"19:00"}],"mar":[{"o":"07:30","c":"13:00"},{"o":"15:30","c":"19:00"}],"mer":[{"o":"07:30","c":"13:00"},{"o":"15:30","c":"19:00"}],"gio":[{"o":"07:30","c":"13:00"},{"o":"15:30","c":"19:00"}],"ven":[{"o":"07:30","c":"13:00"},{"o":"15:30","c":"19:00"}],"sab":[{"o":"07:30","c":"13:00"}],"dom":null}},{"id":"IT11119","name":"Eurospar","cap":"00067","civico":"22","lat":42.146407,"lng":12.497178,"hours":{"lun":[{"o":"08:30","c":"19:00"}],"mar":[{"o":"08:30","c":"19:00"}],"mer":[{"o":"08:30","c":"19:00"}],"gio":[{"o":"08:30","c":"19:00"}],"ven":[{"o":"08:30","c":"19:00"}],"sab":[{"o":"08:30","c":"19:00"}],"dom":null}},{"id":"IT11129","name":"Edicola - Guidonia2","cap":"00012","civico":"21/A","lat":41.981475,"lng":12.617416,"hours":{"lun":[{"o":"06:00","c":"13:00"},{"o":"16:00","c":"19:00"}],"mar":[{"o":"06:00","c":"13:00"},{"o":"16:00","c":"19:00"}],"mer":[{"o":"06:00","c":"13:00"},{"o":"16:00","c":"19:00"}],"gio":[{"o":"06:00","c":"13:00"},{"o":"16:00","c":"19:00"}],"ven":[{"o":"06:00","c":"13:00"},{"o":"16:00","c":"19:00"}],"sab":[{"o":"06:00","c":"13:00"},{"o":"16:00","c":"19:00"}],"dom":null}},{"id":"IT11150","name":"Cartucce Service","cap":"00135","civico":"408","lat":41.944798,"lng":12.390634,"hours":{"lun":[{"o":"09:00","c":"13:00"},{"o":"15:30","c":"19:00"}],"mar":[{"o":"09:00","c":"13:00"},{"o":"15:30","c":"19:00"}],"mer":[{"o":"09:00","c":"13:00"},{"o":"15:30","c":"19:00"}],"gio":[{"o":"09:00","c":"13:00"},{"o":"15:30","c":"19:00"}],"ven":[{"o":"09:00","c":"13:00"},{"o":"15:30","c":"19:00"}],"sab":null,"dom":null}},{"id":"IT11152","name":"Posta Privata Nazionale - Roma","cap":"00141","civico":"45","lat":41.94198,"lng":12.524168,"hours":{"lun":[{"o":"09:00","c":"13:00"}],"mar":[{"o":"09:00","c":"13:00"}],"mer":[{"o":"09:00","c":"13:00"}],"gio":[{"o":"09:00","c":"13:00"}],"ven":[{"o":"09:00","c":"13:00"}],"sab":null,"dom":null}},{"id":"IT11158","name":"Cartoleria Lericart","cap":"00142","civico":"32","lat":41.84687,"lng":12.48163,"hours":{"lun":[{"o":"09:00","c":"13:00"},{"o":"16:00","c":"20:00"}],"mar":[{"o":"09:00","c":"13:00"},{"o":"16:00","c":"20:00"}],"mer":[{"o":"09:00","c":"13:00"},{"o":"16:00","c":"20:00"}],"gio":[{"o":"09:00","c":"13:00"},{"o":"16:00","c":"20:00"}],"ven":[{"o":"09:00","c":"13:00"},{"o":"16:00","c":"20:00"}],"sab":[{"o":"09:00","c":"13:00"},{"o":"16:00","c":"20:00"}],"dom":null}},{"id":"IT11163","name":"Bricocenter - Roma 1","cap":"00135","civico":"157","lat":41.937925,"lng":12.424576,"hours":{"lun":[{"o":"09:00","c":"20:00"}],"mar":[{"o":"09:00","c":"20:00"}],"mer":[{"o":"09:00","c":"20:00"}],"gio":[{"o":"09:00","c":"20:00"}],"ven":[{"o":"09:00","c":"20:00"}],"sab":[{"o":"09:00","c":"20:00"}],"dom":[{"o":"10:00","c":"13:30"},{"o":"16:00","c":"20:00"}]}},{"id":"IT11187","name":"Tabacchi-Roma4","cap":"00132","civico":"","lat":41.917039,"lng":12.683903,"hours":{"lun":[{"o":"07:30","c":"13:00"},{"o":"16:00","c":"20:00"}],"mar":[{"o":"07:30","c":"13:00"},{"o":"16:00","c":"20:00"}],"mer":[{"o":"07:30","c":"13:00"},{"o":"16:00","c":"20:00"}],"gio":[{"o":"07:30","c":"13:00"},{"o":"16:00","c":"20:00"}],"ven":[{"o":"07:30","c":"13:00"},{"o":"16:00","c":"20:00"}],"sab":[{"o":"08:30","c":"13:00"},{"o":"16:00","c":"20:00"}],"dom":null}},{"id":"IT11244","name":"Genesis Poste","cap":"00126","civico":"","lat":41.788233,"lng":12.358103,"hours":{"lun":[{"o":"09:00","c":"13:00"},{"o":"15:30","c":"18:00"}],"mar":[{"o":"09:00","c":"13:00"},{"o":"15:30","c":"18:00"}],"mer":[{"o":"09:00","c":"13:00"},{"o":"15:30","c":"18:00"}],"gio":[{"o":"09:00","c":"13:00"},{"o":"15:30","c":"18:00"}],"ven":[{"o":"09:00","c":"13:00"},{"o":"15:30","c":"18:00"}],"sab":null,"dom":null}},{"id":"IT11266","name":"Moda Merceria - Solo Counter","cap":"00163","civico":"61","lat":41.884277,"lng":12.42034,"hours":{"lun":[{"o":"09:00","c":"13:15"},{"o":"16:30","c":"19:45"}],"mar":[{"o":"09:00","c":"13:15"},{"o":"16:30","c":"19:45"}],"mer":[{"o":"09:00","c":"13:15"},{"o":"16:30","c":"19:45"}],"gio":[{"o":"09:00","c":"13:15"},{"o":"16:30","c":"19:45"}],"ven":[{"o":"09:00","c":"13:15"},{"o":"16:30","c":"19:45"}],"sab":[{"o":"09:00","c":"13:15"},{"o":"16:30","c":"19:45"}],"dom":null}},{"id":"IT11271","name":"Enry Bar","cap":"00012","civico":"14 A","lat":41.955284,"lng":12.646753,"hours":{"lun":[{"o":"06:00","c":"20:30"}],"mar":[{"o":"06:00","c":"20:30"}],"mer":[{"o":"06:00","c":"20:30"}],"gio":[{"o":"06:00","c":"20:30"}],"ven":[{"o":"06:00","c":"20:30"}],"sab":[{"o":"06:00","c":"20:30"}],"dom":[{"o":"08:00","c":"13:30"}]}},{"id":"IT11289","name":"Grapho Tecniche Cartoleria","cap":"00012","civico":"19","lat":41.995,"lng":12.725819,"hours":{"lun":[{"o":"08:30","c":"13:00"},{"o":"16:00","c":"19:00"}],"mar":[{"o":"08:30","c":"13:00"},{"o":"16:00","c":"19:00"}],"mer":[{"o":"08:30","c":"13:00"},{"o":"16:00","c":"19:00"}],"gio":[{"o":"08:30","c":"13:00"},{"o":"16:00","c":"19:00"}],"ven":[{"o":"08:30","c":"13:00"},{"o":"16:00","c":"19:00"}],"sab":[{"o":"08:30","c":"13:00"},{"o":"16:00","c":"19:00"}],"dom":null}},{"id":"IT11317","name":"Autorimessa Garage","cap":"00183","civico":"15","lat":41.87578,"lng":12.505305,"hours":{"lun":[{"o":"06:00","c":"23:45"}],"mar":[{"o":"06:00","c":"23:45"}],"mer":[{"o":"06:00","c":"23:45"}],"gio":[{"o":"06:00","c":"23:45"}],"ven":[{"o":"06:00","c":"23:45"}],"sab":[{"o":"06:00","c":"23:45"}],"dom":null}},{"id":"IT11331","name":"Western Union - Roma","cap":"00132","civico":"","lat":41.864914,"lng":12.687912,"hours":{"lun":[{"o":"11:00","c":"13:00"},{"o":"15:00","c":"19:00"}],"mar":[{"o":"11:00","c":"13:00"},{"o":"15:00","c":"19:00"}],"mer":[{"o":"11:00","c":"13:00"},{"o":"15:00","c":"19:00"}],"gio":[{"o":"11:00","c":"13:00"},{"o":"15:00","c":"19:00"}],"ven":[{"o":"11:00","c":"13:00"},{"o":"15:00","c":"19:00"}],"sab":[{"o":"11:00","c":"14:00"}],"dom":null}},{"id":"IT11334","name":"Edicola De Simone Manuel","cap":"00171","civico":"271","lat":41.888592,"lng":12.565172,"hours":{"lun":[{"o":"05:00","c":"18:00"}],"mar":[{"o":"05:00","c":"18:00"}],"mer":[{"o":"05:00","c":"18:00"}],"gio":[{"o":"05:00","c":"18:00"}],"ven":[{"o":"05:00","c":"18:00"}],"sab":[{"o":"05:00","c":"18:00"}],"dom":[{"o":"06:00","c":"13:00"}]}},{"id":"IT11339","name":"Edicola Rizzetto","cap":"00171","civico":"SNC","lat":41.897233,"lng":12.564276,"hours":{"lun":[{"o":"05:30","c":"13:30"},{"o":"16:00","c":"20:00"}],"mar":[{"o":"05:30","c":"13:30"},{"o":"16:00","c":"20:00"}],"mer":[{"o":"05:30","c":"13:30"},{"o":"16:00","c":"20:00"}],"gio":[{"o":"05:30","c":"13:30"},{"o":"16:00","c":"20:00"}],"ven":[{"o":"05:30","c":"13:30"},{"o":"16:00","c":"20:00"}],"sab":[{"o":"05:30","c":"13:30"},{"o":"16:00","c":"20:00"}],"dom":null}},{"id":"IT11343","name":"Edicola - Roma2","cap":"00181","civico":"19","lat":41.871149,"lng":12.529785,"hours":{"lun":[{"o":"06:00","c":"13:00"},{"o":"16:00","c":"19:00"}],"mar":[{"o":"06:00","c":"13:00"},{"o":"16:00","c":"19:00"}],"mer":[{"o":"06:00","c":"13:00"},{"o":"16:00","c":"19:00"}],"gio":[{"o":"06:00","c":"13:00"},{"o":"16:00","c":"19:00"}],"ven":[{"o":"06:00","c":"13:00"},{"o":"16:00","c":"19:00"}],"sab":[{"o":"06:00","c":"13:00"},{"o":"16:00","c":"19:00"}],"dom":[{"o":"06:00","c":"13:00"}]}},{"id":"IT11370","name":"Edicola De Masi","cap":"00173","civico":"SNC","lat":41.835889,"lng":12.587298,"hours":{"lun":[{"o":"06:30","c":"13:30"}],"mar":[{"o":"06:30","c":"19:30"}],"mer":[{"o":"06:30","c":"19:30"}],"gio":[{"o":"06:30","c":"19:30"}],"ven":[{"o":"06:30","c":"19:30"}],"sab":[{"o":"06:30","c":"13:30"}],"dom":null}},{"id":"IT11379","name":"Poste e non Solo-Fonte Nuova","cap":"00013","civico":"","lat":41.995518,"lng":12.618885,"hours":{"lun":[{"o":"08:30","c":"19:00"}],"mar":[{"o":"08:30","c":"19:00"}],"mer":[{"o":"08:30","c":"19:00"}],"gio":[{"o":"08:30","c":"19:00"}],"ven":[{"o":"08:30","c":"19:00"}],"sab":[{"o":"08:30","c":"13:00"}],"dom":null}},{"id":"IT11395","name":"Estro Point","cap":"00182","civico":"67","lat":41.879656,"lng":12.520378,"hours":{"lun":[{"o":"10:00","c":"18:30"}],"mar":[{"o":"10:00","c":"18:30"}],"mer":[{"o":"10:00","c":"18:30"}],"gio":[{"o":"10:00","c":"18:30"}],"ven":[{"o":"10:00","c":"18:30"}],"sab":null,"dom":null}},{"id":"IT11399","name":"Tabaccheria Di Pasquo Adriana","cap":"00040","civico":"","lat":41.616273,"lng":12.534501,"hours":{"lun":[{"o":"07:00","c":"20:00"}],"mar":[{"o":"07:00","c":"20:00"}],"mer":[{"o":"07:00","c":"20:00"}],"gio":[{"o":"07:00","c":"20:00"}],"ven":[{"o":"07:00","c":"20:00"}],"sab":[{"o":"07:00","c":"20:00"}],"dom":[{"o":"08:00","c":"13:00"}]}},{"id":"IT11406","name":"Andy's Coffe","cap":"00053","civico":"","lat":42.093284,"lng":11.802527,"hours":{"lun":[{"o":"07:00","c":"13:00"},{"o":"16:00","c":"19:00"}],"mar":[{"o":"07:00","c":"13:00"},{"o":"16:00","c":"19:00"}],"mer":[{"o":"07:00","c":"13:00"},{"o":"16:00","c":"19:00"}],"gio":[{"o":"07:00","c":"13:00"},{"o":"16:00","c":"19:00"}],"ven":[{"o":"07:00","c":"13:00"},{"o":"16:00","c":"19:00"}],"sab":[{"o":"07:00","c":"13:00"}],"dom":null}},{"id":"IT11407","name":"Nuova Posta- Monterotondo","cap":"00015","civico":"","lat":42.06034,"lng":12.60185,"hours":{"lun":[{"o":"09:00","c":"13:00"}],"mar":null,"mer":[{"o":"09:00","c":"13:00"}],"gio":null,"ven":[{"o":"09:00","c":"13:00"}],"sab":null,"dom":null}},{"id":"IT11435","name":"AgriPiù-Fonte Nuova","cap":"00013","civico":"1","lat":41.997903,"lng":12.622283,"hours":{"lun":[{"o":"07:00","c":"13:00"},{"o":"15:30","c":"19:30"}],"mar":[{"o":"07:00","c":"13:00"},{"o":"15:30","c":"19:30"}],"mer":[{"o":"07:00","c":"13:00"},{"o":"15:30","c":"19:30"}],"gio":[{"o":"07:00","c":"13:00"},{"o":"15:30","c":"19:30"}],"ven":[{"o":"07:00","c":"13:00"},{"o":"15:30","c":"19:30"}],"sab":[{"o":"07:00","c":"13:00"},{"o":"15:30","c":"19:30"}],"dom":null}},{"id":"IT11442","name":"Assistenza Computer","cap":"00173","civico":"42","lat":41.840607,"lng":12.60896,"hours":{"lun":[{"o":"10:00","c":"18:00"}],"mar":[{"o":"10:00","c":"18:00"}],"mer":[{"o":"10:00","c":"18:00"}],"gio":[{"o":"10:00","c":"18:00"}],"ven":[{"o":"10:00","c":"18:00"}],"sab":null,"dom":null}},{"id":"IT11472","name":"Internet Point","cap":"00176","civico":"232","lat":41.885606,"lng":12.540605,"hours":{"lun":[{"o":"10:00","c":"13:00"},{"o":"15:00","c":"19:30"}],"mar":[{"o":"10:00","c":"13:00"},{"o":"15:00","c":"19:30"}],"mer":[{"o":"10:00","c":"13:00"},{"o":"15:00","c":"19:30"}],"gio":[{"o":"10:00","c":"13:00"},{"o":"15:00","c":"19:30"}],"ven":[{"o":"10:00","c":"13:00"},{"o":"15:00","c":"19:30"}],"sab":[{"o":"10:00","c":"13:00"},{"o":"15:00","c":"19:30"}],"dom":null}},{"id":"IT11475","name":"Chiosco-Edicola-Roma1","cap":"00132","civico":"","lat":41.905882,"lng":12.692059,"hours":{"lun":[{"o":"06:30","c":"13:30"}],"mar":[{"o":"06:30","c":"13:30"}],"mer":[{"o":"06:30","c":"13:30"}],"gio":[{"o":"06:30","c":"13:30"}],"ven":[{"o":"06:30","c":"13:30"}],"sab":[{"o":"06:30","c":"13:30"}],"dom":[{"o":"06:30","c":"13:30"}]}},{"id":"IT11477","name":"Gelateria Mon Amour","cap":"00118","civico":"139","lat":41.814126,"lng":12.602817,"hours":{"lun":[{"o":"06:00","c":"20:00"}],"mar":[{"o":"06:00","c":"20:00"}],"mer":[{"o":"06:00","c":"20:00"}],"gio":[{"o":"06:00","c":"20:00"}],"ven":[{"o":"06:00","c":"20:00"}],"sab":[{"o":"06:00","c":"20:00"}],"dom":null}},{"id":"IT11478","name":"Ferramenta - Genzano di Roma","cap":"00045","civico":"5","lat":41.707617,"lng":12.688822,"hours":{"lun":[{"o":"08:30","c":"13:00"},{"o":"16:30","c":"18:30"}],"mar":[{"o":"08:30","c":"13:00"},{"o":"16:30","c":"18:30"}],"mer":[{"o":"08:30","c":"13:00"},{"o":"16:30","c":"18:30"}],"gio":[{"o":"08:30","c":"13:00"}],"ven":[{"o":"08:30","c":"13:00"},{"o":"16:30","c":"18:30"}],"sab":[{"o":"08:30","c":"13:00"},{"o":"16:30","c":"18:30"}],"dom":null}},{"id":"IT11480","name":"Ida Bomboniere","cap":"00123","civico":"49","lat":42.038044,"lng":12.310138,"hours":{"lun":[{"o":"09:00","c":"12:00"},{"o":"15:00","c":"19:00"}],"mar":[{"o":"09:00","c":"12:00"},{"o":"15:00","c":"19:00"}],"mer":[{"o":"09:00","c":"12:00"},{"o":"15:00","c":"19:00"}],"gio":[{"o":"09:00","c":"12:00"},{"o":"15:00","c":"19:00"}],"ven":[{"o":"09:00","c":"12:00"},{"o":"15:00","c":"19:00"}],"sab":[{"o":"09:00","c":"12:00"},{"o":"15:00","c":"19:00"}],"dom":null}},{"id":"IT11487","name":"Bar Tabacchi Happydinos","cap":"00126","civico":"195","lat":41.789958,"lng":12.370557,"hours":{"lun":[{"o":"06:00","c":"20:00"}],"mar":[{"o":"06:00","c":"20:00"}],"mer":[{"o":"06:00","c":"20:00"}],"gio":[{"o":"06:00","c":"20:00"}],"ven":[{"o":"06:00","c":"20:00"}],"sab":[{"o":"06:00","c":"20:00"}],"dom":[{"o":"06:00","c":"20:00"}]}},{"id":"IT11488","name":"Neopolis - Remax","cap":"00043","civico":"","lat":41.782994,"lng":12.60179,"hours":{"lun":[{"o":"09:00","c":"13:00"},{"o":"14:00","c":"18:00"}],"mar":[{"o":"09:00","c":"13:00"},{"o":"14:00","c":"18:00"}],"mer":[{"o":"09:00","c":"13:00"},{"o":"14:00","c":"18:00"}],"gio":[{"o":"09:00","c":"13:00"},{"o":"14:00","c":"18:00"}],"ven":[{"o":"09:00","c":"13:00"},{"o":"14:00","c":"18:00"}],"sab":null,"dom":null}},{"id":"IT11495","name":"Digital Brain","cap":"00148","civico":"","lat":41.845655,"lng":12.435468,"hours":{"lun":[{"o":"11:00","c":"13:00"},{"o":"15:30","c":"18:00"}],"mar":[{"o":"08:00","c":"13:00"}],"mer":[{"o":"10:00","c":"13:00"},{"o":"15:30","c":"18:00"}],"gio":[{"o":"08:00","c":"13:00"}],"ven":[{"o":"08:00","c":"13:00"},{"o":"15:30","c":"18:00"}],"sab":null,"dom":null}},{"id":"IT11497","name":"Directa Cieffe Servizi","cap":"00181","civico":"","lat":41.877092,"lng":12.523895,"hours":{"lun":[{"o":"09:00","c":"13:00"},{"o":"14:00","c":"17:00"}],"mar":[{"o":"09:00","c":"13:00"},{"o":"14:00","c":"17:00"}],"mer":[{"o":"09:00","c":"13:00"},{"o":"14:00","c":"17:00"}],"gio":[{"o":"09:00","c":"13:00"},{"o":"14:00","c":"17:00"}],"ven":[{"o":"09:00","c":"13:00"},{"o":"14:00","c":"17:00"}],"sab":null,"dom":null}},{"id":"IT11504","name":"Mercato Fallimenti","cap":"00071","civico":"1","lat":41.655371,"lng":12.544069,"hours":{"lun":[{"o":"09:00","c":"13:00"},{"o":"14:00","c":"18:00"}],"mar":[{"o":"09:00","c":"13:00"},{"o":"14:00","c":"18:00"}],"mer":[{"o":"09:00","c":"13:00"},{"o":"14:00","c":"18:00"}],"gio":[{"o":"09:00","c":"13:00"},{"o":"14:00","c":"18:00"}],"ven":[{"o":"09:00","c":"13:00"},{"o":"14:00","c":"18:00"}],"sab":null,"dom":null}},{"id":"IT11513","name":"Edicola Mondo Notizie","cap":"00188","civico":"1","lat":41.996401,"lng":12.485106,"hours":{"lun":[{"o":"07:00","c":"20:00"}],"mar":[{"o":"07:00","c":"20:00"}],"mer":[{"o":"07:00","c":"20:00"}],"gio":[{"o":"07:00","c":"20:00"}],"ven":[{"o":"07:00","c":"20:00"}],"sab":[{"o":"07:00","c":"20:00"}],"dom":[{"o":"07:30","c":"13:30"}]}},{"id":"IT11519","name":"Studio Tecnico","cap":"00179","civico":"17","lat":41.875265,"lng":12.517277,"hours":{"lun":[{"o":"09:00","c":"13:00"}],"mar":[{"o":"09:00","c":"13:00"}],"mer":[{"o":"09:00","c":"13:00"}],"gio":[{"o":"09:00","c":"13:00"}],"ven":null,"sab":null,"dom":null}},{"id":"IT11530","name":"Centro Servizi Salvatori","cap":"00066","civico":"","lat":42.129556,"lng":12.132403,"hours":{"lun":[{"o":"09:00","c":"13:00"},{"o":"16:00","c":"19:30"}],"mar":[{"o":"09:00","c":"13:00"},{"o":"16:00","c":"19:30"}],"mer":[{"o":"09:00","c":"13:00"},{"o":"16:00","c":"19:30"}],"gio":[{"o":"09:00","c":"13:00"},{"o":"16:00","c":"19:30"}],"ven":[{"o":"09:00","c":"13:00"},{"o":"16:00","c":"19:30"}],"sab":[{"o":"09:00","c":"13:00"},{"o":"16:00","c":"19:30"}],"dom":null}},{"id":"IT11531","name":"Centro Servizi - Roma","cap":"00123","civico":"223","lat":42.020065,"lng":12.3754,"hours":{"lun":[{"o":"10:00","c":"13:30"},{"o":"15:00","c":"17:30"}],"mar":[{"o":"10:00","c":"13:30"},{"o":"15:00","c":"17:30"}],"mer":[{"o":"10:00","c":"13:30"},{"o":"15:00","c":"17:30"}],"gio":[{"o":"10:00","c":"13:30"},{"o":"15:00","c":"17:30"}],"ven":[{"o":"10:00","c":"13:30"},{"o":"15:00","c":"17:30"}],"sab":null,"dom":null}},{"id":"IT11547","name":"Che Posta - Roma","cap":"00146","civico":"252","lat":41.86363,"lng":12.46388,"hours":{"lun":[{"o":"08:00","c":"19:00"}],"mar":[{"o":"08:00","c":"19:00"}],"mer":[{"o":"08:00","c":"19:00"}],"gio":[{"o":"08:00","c":"19:00"}],"ven":[{"o":"08:00","c":"19:00"}],"sab":[{"o":"09:00","c":"13:00"}],"dom":null}},{"id":"IT11554","name":"ESSEEMME Services & Consulting","cap":"00137","civico":"63/B","lat":41.9601,"lng":12.54493,"hours":{"lun":[{"o":"09:15","c":"13:00"},{"o":"15:30","c":"17:30"}],"mar":[{"o":"09:15","c":"13:00"},{"o":"15:30","c":"17:30"}],"mer":[{"o":"09:15","c":"13:00"},{"o":"15:30","c":"17:30"}],"gio":[{"o":"09:15","c":"13:00"},{"o":"15:30","c":"17:30"}],"ven":[{"o":"09:15","c":"13:00"},{"o":"15:30","c":"17:30"}],"sab":null,"dom":null}},{"id":"IT11564","name":"Edicolè - Roma","cap":"00189","civico":"","lat":41.965599,"lng":12.45331,"hours":{"lun":[{"o":"07:00","c":"19:30"}],"mar":[{"o":"07:00","c":"19:30"}],"mer":[{"o":"07:00","c":"19:30"}],"gio":[{"o":"07:00","c":"19:30"}],"ven":[{"o":"07:00","c":"19:30"}],"sab":[{"o":"07:00","c":"19:30"}],"dom":[{"o":"07:00","c":"13:00"}]}},{"id":"IT11581","name":"Al Bar di Andrea","cap":"00142","civico":"","lat":41.84253,"lng":12.511801,"hours":{"lun":[{"o":"06:30","c":"20:00"}],"mar":[{"o":"06:30","c":"20:00"}],"mer":[{"o":"06:30","c":"20:00"}],"gio":[{"o":"06:30","c":"20:00"}],"ven":[{"o":"06:30","c":"20:00"}],"sab":[{"o":"06:30","c":"13:00"}],"dom":null}},{"id":"IT11590","name":"Mister Copy","cap":"00162","civico":"2","lat":41.920877,"lng":12.51814,"hours":{"lun":[{"o":"08:00","c":"18:00"}],"mar":[{"o":"08:00","c":"18:00"}],"mer":[{"o":"08:00","c":"18:00"}],"gio":[{"o":"08:00","c":"18:00"}],"ven":[{"o":"08:00","c":"18:00"}],"sab":null,"dom":null}},{"id":"IT11612","name":"Gocce di Natura","cap":"00142","civico":"12","lat":41.833006,"lng":12.494581,"hours":{"lun":[{"o":"09:00","c":"19:30"}],"mar":[{"o":"09:00","c":"19:30"}],"mer":[{"o":"09:00","c":"19:30"}],"gio":[{"o":"09:00","c":"19:30"}],"ven":[{"o":"09:00","c":"19:30"}],"sab":[{"o":"09:00","c":"13:30"},{"o":"16:00","c":"19:30"}],"dom":null}},{"id":"IT11623","name":"Best Ink","cap":"00199","civico":"185","lat":41.92873,"lng":12.516122,"hours":{"lun":[{"o":"09:00","c":"13:00"}],"mar":[{"o":"09:00","c":"13:00"}],"mer":[{"o":"09:00","c":"13:00"}],"gio":[{"o":"09:00","c":"13:00"}],"ven":[{"o":"09:00","c":"13:00"}],"sab":null,"dom":null}},{"id":"IT11629","name":"Ireplace - Guidonia","cap":"00012","civico":"36","lat":41.987007,"lng":12.712536,"hours":{"lun":[{"o":"16:00","c":"19:30"}],"mar":[{"o":"09:00","c":"13:00"},{"o":"16:00","c":"19:30"}],"mer":[{"o":"09:00","c":"13:00"},{"o":"16:00","c":"19:30"}],"gio":[{"o":"09:00","c":"13:00"},{"o":"16:00","c":"19:30"}],"ven":[{"o":"09:00","c":"13:00"},{"o":"16:00","c":"19:30"}],"sab":[{"o":"09:00","c":"13:00"}],"dom":null}},{"id":"IT11632","name":"Fast Mail Service-Roma1","cap":"00177","civico":"50","lat":41.875785,"lng":12.546044,"hours":{"lun":[{"o":"09:00","c":"14:00"},{"o":"15:00","c":"18:00"}],"mar":[{"o":"09:00","c":"14:00"},{"o":"15:00","c":"18:00"}],"mer":[{"o":"09:00","c":"14:00"},{"o":"15:00","c":"18:00"}],"gio":[{"o":"09:00","c":"14:00"},{"o":"15:00","c":"18:00"}],"ven":[{"o":"09:00","c":"14:00"},{"o":"15:00","c":"18:00"}],"sab":null,"dom":null}},{"id":"IT11637","name":"MailService italia - Roma","cap":"00137","civico":"11","lat":41.94453,"lng":12.556942,"hours":{"lun":[{"o":"08:30","c":"16:30"}],"mar":[{"o":"08:30","c":"16:30"}],"mer":[{"o":"08:30","c":"16:30"}],"gio":[{"o":"08:30","c":"16:30"},{"o":"08:45","c":"16:30"}],"ven":[{"o":"08:30","c":"16:30"}],"sab":null,"dom":null}},{"id":"IT11658","name":"PC Wonder","cap":"00132","civico":"270","lat":41.899395,"lng":12.687608,"hours":{"lun":[{"o":"09:00","c":"13:00"},{"o":"16:30","c":"19:00"}],"mar":[{"o":"09:00","c":"13:00"},{"o":"16:30","c":"19:00"}],"mer":[{"o":"09:00","c":"13:00"},{"o":"16:30","c":"19:00"}],"gio":[{"o":"09:00","c":"13:00"}],"ven":[{"o":"09:00","c":"13:00"},{"o":"16:30","c":"19:00"}],"sab":[{"o":"09:00","c":"13:00"}],"dom":null}},{"id":"IT11661","name":"Reboa Resort","cap":"00181","civico":"28","lat":41.87702,"lng":12.524297,"hours":{"lun":[{"o":"10:00","c":"18:00"}],"mar":[{"o":"10:00","c":"18:00"}],"mer":[{"o":"10:00","c":"18:00"}],"gio":[{"o":"10:00","c":"18:00"}],"ven":[{"o":"10:00","c":"18:00"}],"sab":[{"o":"10:00","c":"18:00"}],"dom":[{"o":"10:00","c":"18:00"}]}},{"id":"IT11697","name":"Aci Zagarolo","cap":"00039","civico":"136","lat":41.83112,"lng":12.837537,"hours":{"lun":[{"o":"09:00","c":"13:00"},{"o":"15:00","c":"19:00"}],"mar":[{"o":"09:00","c":"13:00"},{"o":"15:00","c":"19:00"}],"mer":[{"o":"09:00","c":"13:00"},{"o":"15:00","c":"19:00"}],"gio":[{"o":"09:00","c":"13:00"},{"o":"15:00","c":"19:00"}],"ven":[{"o":"09:00","c":"13:00"},{"o":"15:00","c":"19:00"}],"sab":null,"dom":null}},{"id":"IT11699","name":"Fox Grafica","cap":"00044","civico":"","lat":41.819696,"lng":12.641393,"hours":{"lun":[{"o":"09:00","c":"13:00"},{"o":"16:00","c":"19:00"}],"mar":[{"o":"09:00","c":"13:00"},{"o":"16:00","c":"19:00"}],"mer":[{"o":"09:00","c":"13:00"},{"o":"16:00","c":"19:00"}],"gio":[{"o":"09:00","c":"13:00"},{"o":"16:00","c":"19:00"}],"ven":[{"o":"09:00","c":"13:00"},{"o":"16:00","c":"19:00"}],"sab":null,"dom":null}},{"id":"IT11727","name":"Hermes PT - Ariccia","cap":"00072","civico":"2","lat":41.712599,"lng":12.632109,"hours":{"lun":[{"o":"09:00","c":"13:00"},{"o":"15:00","c":"19:00"}],"mar":[{"o":"09:00","c":"13:00"},{"o":"15:00","c":"19:00"}],"mer":[{"o":"09:00","c":"13:00"},{"o":"15:00","c":"19:00"}],"gio":[{"o":"09:00","c":"13:00"},{"o":"15:00","c":"19:00"}],"ven":[{"o":"09:00","c":"13:00"},{"o":"15:00","c":"19:00"}],"sab":null,"dom":null}},{"id":"IT11729","name":"Dasi Computer","cap":"00147","civico":"10","lat":41.854046,"lng":12.501403,"hours":{"lun":[{"o":"09:30","c":"13:00"},{"o":"16:00","c":"18:00"}],"mar":[{"o":"09:30","c":"13:00"},{"o":"16:00","c":"18:00"}],"mer":[{"o":"09:30","c":"13:00"},{"o":"16:00","c":"18:00"}],"gio":[{"o":"09:30","c":"13:00"},{"o":"16:00","c":"18:00"}],"ven":[{"o":"09:30","c":"13:00"},{"o":"16:00","c":"18:00"}],"sab":null,"dom":null}},{"id":"IT11751","name":"Karimi Mira Telecom - Roma2","cap":"00177","civico":"241 B","lat":41.887531,"lng":12.542571,"hours":{"lun":[{"o":"09:00","c":"13:00"},{"o":"16:00","c":"19:30"}],"mar":[{"o":"09:00","c":"13:00"},{"o":"16:00","c":"19:30"}],"mer":[{"o":"09:00","c":"13:00"},{"o":"16:00","c":"19:30"}],"gio":[{"o":"09:00","c":"13:00"},{"o":"16:00","c":"19:30"}],"ven":[{"o":"09:00","c":"13:00"},{"o":"16:00","c":"19:30"}],"sab":[{"o":"09:00","c":"13:00"},{"o":"16:00","c":"19:00"}],"dom":null}},{"id":"IT11761","name":"Zagart","cap":"00036","civico":"","lat":41.82313,"lng":12.856575,"hours":{"lun":[{"o":"08:00","c":"13:00"},{"o":"14:30","c":"17:30"}],"mar":[{"o":"08:00","c":"13:00"},{"o":"14:30","c":"17:30"}],"mer":[{"o":"08:00","c":"13:00"},{"o":"14:30","c":"17:30"}],"gio":[{"o":"08:00","c":"13:00"},{"o":"14:30","c":"17:30"}],"ven":[{"o":"08:00","c":"13:00"},{"o":"14:30","c":"17:30"}],"sab":null,"dom":null}},{"id":"IT11769","name":"Edicola - Roma4","cap":"00148","civico":"713","lat":41.851527,"lng":12.434024,"hours":{"lun":[{"o":"06:00","c":"19:30"}],"mar":[{"o":"06:00","c":"19:30"}],"mer":[{"o":"06:00","c":"19:30"}],"gio":[{"o":"06:00","c":"19:30"}],"ven":[{"o":"06:00","c":"19:30"}],"sab":[{"o":"06:00","c":"19:30"}],"dom":[{"o":"06:30","c":"13:00"}]}},{"id":"IT11773","name":"Trastevere Solution Services","cap":"00147","civico":"31","lat":41.887882,"lng":12.470001,"hours":{"lun":[{"o":"12:00","c":"18:00"}],"mar":[{"o":"12:00","c":"18:00"}],"mer":[{"o":"12:00","c":"18:00"}],"gio":[{"o":"12:00","c":"18:00"}],"ven":[{"o":"12:00","c":"18:00"}],"sab":null,"dom":null}},{"id":"IT11805","name":"Amì Centro Servizi - Roma","cap":"00133","civico":"89","lat":41.874028,"lng":12.615854,"hours":{"lun":[{"o":"08:30","c":"19:30"}],"mar":[{"o":"08:30","c":"19:30"}],"mer":[{"o":"08:30","c":"19:30"}],"gio":[{"o":"08:30","c":"19:30"}],"ven":[{"o":"08:30","c":"19:30"}],"sab":null,"dom":null}},{"id":"IT11824","name":"Moto World - Roma","cap":"00176","civico":"60/A","lat":41.891044,"lng":12.522709,"hours":{"lun":[{"o":"08:30","c":"19:30"}],"mar":[{"o":"08:30","c":"19:30"}],"mer":[{"o":"08:30","c":"19:30"}],"gio":[{"o":"08:30","c":"19:30"}],"ven":[{"o":"08:30","c":"19:30"}],"sab":[{"o":"08:30","c":"14:00"}],"dom":null}},{"id":"IT11829","name":"Edicola Lentricchia","cap":"00156","civico":"","lat":41.928554,"lng":12.568374,"hours":{"lun":null,"mar":[{"o":"07:00","c":"13:00"},{"o":"16:00","c":"19:30"}],"mer":[{"o":"07:00","c":"13:00"},{"o":"16:00","c":"19:30"}],"gio":[{"o":"07:00","c":"13:00"},{"o":"16:00","c":"19:30"}],"ven":[{"o":"07:00","c":"13:00"},{"o":"16:00","c":"19:30"}],"sab":[{"o":"07:00","c":"13:00"},{"o":"16:30","c":"19:30"}],"dom":[{"o":"07:00","c":"13:00"}]}},{"id":"IT11832","name":"Edicola - Roma5","cap":"00139","civico":"54","lat":41.949004,"lng":12.526169,"hours":{"lun":[{"o":"07:30","c":"20:00"}],"mar":[{"o":"07:30","c":"20:00"}],"mer":[{"o":"07:30","c":"20:00"}],"gio":[{"o":"07:30","c":"20:00"}],"ven":[{"o":"07:30","c":"20:00"}],"sab":[{"o":"07:30","c":"20:00"}],"dom":[{"o":"07:30","c":"13:30"}]}},{"id":"IT11835","name":"Edicola - Roma","cap":"00138","civico":"124","lat":41.987315,"lng":12.505426,"hours":{"lun":[{"o":"06:30","c":"19:00"}],"mar":[{"o":"06:30","c":"19:00"}],"mer":[{"o":"06:30","c":"19:00"}],"gio":[{"o":"06:30","c":"19:00"}],"ven":[{"o":"06:30","c":"19:00"}],"sab":[{"o":"06:30","c":"13:30"}],"dom":[{"o":"06:30","c":"13:30"}]}},{"id":"IT11855","name":"Bar Rendez - Vous Cafè","cap":"00199","civico":"","lat":41.935855,"lng":12.515978,"hours":{"lun":[{"o":"09:00","c":"19:30"}],"mar":[{"o":"09:00","c":"19:30"}],"mer":[{"o":"09:00","c":"19:30"}],"gio":[{"o":"09:00","c":"19:30"}],"ven":[{"o":"09:00","c":"19:30"}],"sab":[{"o":"09:00","c":"19:30"}],"dom":null}},{"id":"IT11873","name":"Foto Digital Discount - Roma","cap":"00122","civico":"15","lat":41.736309,"lng":12.284917,"hours":{"lun":[{"o":"16:00","c":"19:30"}],"mar":[{"o":"09:00","c":"13:00"},{"o":"16:30","c":"19:30"}],"mer":[{"o":"09:00","c":"13:00"},{"o":"16:30","c":"19:30"}],"gio":[{"o":"09:00","c":"13:00"},{"o":"16:30","c":"19:30"}],"ven":[{"o":"09:00","c":"13:00"},{"o":"16:30","c":"19:30"}],"sab":[{"o":"09:00","c":"13:00"}],"dom":null}},{"id":"IT11897","name":"Cartoleria - Ariccia","cap":"00072","civico":"15","lat":41.680961,"lng":12.651483,"hours":{"lun":[{"o":"09:00","c":"12:00"},{"o":"16:00","c":"18:00"}],"mar":[{"o":"09:00","c":"12:00"},{"o":"16:00","c":"18:00"}],"mer":[{"o":"09:00","c":"12:00"},{"o":"16:00","c":"18:00"}],"gio":[{"o":"09:00","c":"12:00"},{"o":"16:00","c":"18:00"}],"ven":[{"o":"09:00","c":"12:00"},{"o":"16:00","c":"18:00"}],"sab":[{"o":"09:00","c":"12:00"}],"dom":null}},{"id":"IT11899","name":"Globophonia","cap":"00072","civico":"6","lat":41.712886,"lng":12.631324,"hours":{"lun":[{"o":"09:30","c":"19:30"}],"mar":[{"o":"09:30","c":"19:30"}],"mer":[{"o":"09:30","c":"19:30"}],"gio":[{"o":"09:30","c":"19:30"}],"ven":[{"o":"09:30","c":"19:30"}],"sab":[{"o":"09:30","c":"19:00"}],"dom":null}},{"id":"IT11920","name":"Sarifra Multiservice","cap":"00177","civico":"47","lat":41.891344,"lng":12.550027,"hours":{"lun":[{"o":"09:30","c":"13:00"},{"o":"15:30","c":"18:00"}],"mar":[{"o":"09:30","c":"13:00"},{"o":"15:30","c":"18:00"}],"mer":[{"o":"09:30","c":"13:00"},{"o":"15:30","c":"18:00"}],"gio":[{"o":"09:30","c":"13:00"},{"o":"15:30","c":"18:00"}],"ven":[{"o":"09:30","c":"13:00"},{"o":"15:30","c":"18:00"}],"sab":null,"dom":null}},{"id":"IT11926","name":"Caf - Patronato - Roma","cap":"00133","civico":"187","lat":41.857955,"lng":12.602075,"hours":{"lun":[{"o":"09:00","c":"12:00"},{"o":"15:30","c":"18:30"}],"mar":[{"o":"15:30","c":"18:30"}],"mer":[{"o":"09:00","c":"12:00"},{"o":"15:30","c":"18:30"}],"gio":null,"ven":[{"o":"09:00","c":"12:00"},{"o":"15:30","c":"18:30"}],"sab":[{"o":"09:00","c":"12:00"}],"dom":null}},{"id":"IT11933","name":"Stazione di Servizio IP-Roma1","cap":"00119","civico":"665","lat":41.75784,"lng":12.299408,"hours":{"lun":[{"o":"07:00","c":"12:30"},{"o":"15:00","c":"19:00"}],"mar":[{"o":"07:00","c":"12:30"},{"o":"15:00","c":"19:00"}],"mer":[{"o":"07:00","c":"12:30"},{"o":"15:00","c":"19:00"}],"gio":[{"o":"07:00","c":"12:30"},{"o":"15:00","c":"19:00"}],"ven":[{"o":"07:00","c":"12:30"},{"o":"15:00","c":"19:00"}],"sab":[{"o":"07:00","c":"12:30"},{"o":"15:00","c":"19:00"}],"dom":null}},{"id":"IT11957","name":"Jaku Toys Fumetteria","cap":"00154","civico":"48","lat":41.865909,"lng":12.487239,"hours":{"lun":[{"o":"16:00","c":"19:30"}],"mar":[{"o":"11:30","c":"13:30"},{"o":"16:00","c":"19:30"}],"mer":[{"o":"11:30","c":"13:30"},{"o":"16:00","c":"19:30"}],"gio":[{"o":"11:30","c":"13:30"},{"o":"16:00","c":"19:30"}],"ven":[{"o":"11:30","c":"13:30"},{"o":"16:00","c":"19:30"}],"sab":[{"o":"11:30","c":"13:30"},{"o":"16:00","c":"19:30"}],"dom":null}},{"id":"IT11960","name":"As.Ca Impianti","cap":"00173","civico":"108","lat":41.844196,"lng":12.591828,"hours":{"lun":[{"o":"09:00","c":"18:00"}],"mar":[{"o":"09:00","c":"18:00"}],"mer":[{"o":"09:00","c":"18:00"}],"gio":[{"o":"09:00","c":"18:00"}],"ven":[{"o":"09:00","c":"18:00"}],"sab":null,"dom":null}},{"id":"IT11961","name":"Centro Servizi 24 - Roma","cap":"00171","civico":"39","lat":41.8905,"lng":12.56469,"hours":{"lun":[{"o":"09:30","c":"13:00"},{"o":"15:30","c":"19:30"}],"mar":[{"o":"09:30","c":"13:00"},{"o":"15:30","c":"19:30"}],"mer":[{"o":"09:30","c":"13:00"},{"o":"15:30","c":"19:30"}],"gio":[{"o":"09:30","c":"13:00"},{"o":"15:30","c":"19:30"}],"ven":[{"o":"09:30","c":"13:00"},{"o":"15:30","c":"19:30"}],"sab":[{"o":"09:30","c":"13:00"}],"dom":null}},{"id":"IT11963","name":"Nuova Casa Immobiliare","cap":"00132","civico":"1890 I","lat":41.86332,"lng":12.690661,"hours":{"lun":[{"o":"09:00","c":"12:30"},{"o":"16:00","c":"18:30"}],"mar":[{"o":"09:00","c":"12:30"},{"o":"16:00","c":"18:30"}],"mer":[{"o":"09:00","c":"12:30"},{"o":"16:00","c":"18:30"}],"gio":[{"o":"09:00","c":"12:30"},{"o":"16:00","c":"18:30"}],"ven":[{"o":"09:00","c":"12:30"},{"o":"16:00","c":"18:30"}],"sab":null,"dom":null}},{"id":"IT11973","name":"Drupa Caffe","cap":"00135","civico":"","lat":41.944138,"lng":12.390298,"hours":{"lun":[{"o":"06:30","c":"20:00"}],"mar":[{"o":"06:30","c":"20:00"}],"mer":[{"o":"06:30","c":"20:00"}],"gio":[{"o":"06:30","c":"20:00"}],"ven":[{"o":"06:30","c":"20:00"}],"sab":[{"o":"06:30","c":"20:00"}],"dom":[{"o":"07:00","c":"13:00"}]}},{"id":"IT11977","name":"Cartoleria - Guidonia Montecelio","cap":"00012","civico":"28","lat":42.022687,"lng":12.744338,"hours":{"lun":[{"o":"07:30","c":"14:00"},{"o":"16:00","c":"19:30"}],"mar":[{"o":"07:30","c":"14:00"},{"o":"16:00","c":"19:30"}],"mer":[{"o":"07:30","c":"14:00"},{"o":"16:00","c":"19:30"}],"gio":[{"o":"07:30","c":"14:00"},{"o":"16:00","c":"19:30"}],"ven":[{"o":"07:30","c":"14:00"},{"o":"16:00","c":"19:30"}],"sab":[{"o":"07:30","c":"14:00"},{"o":"16:00","c":"19:30"}],"dom":null}},{"id":"IT11981","name":"La Posta Nazionale - Roma1","cap":"00155","civico":"","lat":41.889907,"lng":12.609646,"hours":{"lun":[{"o":"07:00","c":"16:00"}],"mar":[{"o":"07:00","c":"16:00"}],"mer":[{"o":"07:00","c":"16:00"}],"gio":[{"o":"07:00","c":"16:00"}],"ven":[{"o":"07:00","c":"16:00"}],"sab":[{"o":"07:00","c":"12:00"}],"dom":null}},{"id":"IT11988","name":"Caf - Roma","cap":"00132","civico":"273","lat":41.886339,"lng":12.693748,"hours":{"lun":[{"o":"09:00","c":"15:00"}],"mar":[{"o":"09:00","c":"15:00"}],"mer":[{"o":"09:00","c":"15:00"}],"gio":[{"o":"09:00","c":"15:00"}],"ven":[{"o":"09:00","c":"15:00"}],"sab":null,"dom":null}},{"id":"IT11990","name":"ASV Servizi","cap":"00152","civico":"46","lat":41.881041,"lng":12.455482,"hours":{"lun":[{"o":"15:00","c":"19:30"}],"mar":[{"o":"10:00","c":"12:00"},{"o":"15:00","c":"19:30"}],"mer":[{"o":"10:00","c":"12:00"},{"o":"15:00","c":"19:30"}],"gio":[{"o":"10:00","c":"12:00"},{"o":"15:00","c":"19:30"}],"ven":[{"o":"10:00","c":"12:00"},{"o":"15:00","c":"19:30"}],"sab":[{"o":"10:00","c":"15:00"}],"dom":null}},{"id":"IT12007","name":"Centro Servizio Blocknotes","cap":"00156","civico":"181","lat":41.943354,"lng":12.571121,"hours":{"lun":[{"o":"09:00","c":"13:00"},{"o":"16:00","c":"19:00"}],"mar":[{"o":"09:00","c":"13:00"},{"o":"16:00","c":"19:00"}],"mer":[{"o":"09:00","c":"13:00"},{"o":"16:00","c":"19:00"}],"gio":[{"o":"09:00","c":"13:00"},{"o":"16:00","c":"19:00"}],"ven":[{"o":"09:00","c":"13:00"},{"o":"16:00","c":"19:00"}],"sab":[{"o":"09:30","c":"13:00"}],"dom":null}},{"id":"IT12011","name":"Libreria- Cartoleria- Ladispoli","cap":"00055","civico":"8","lat":41.95665,"lng":12.066047,"hours":{"lun":[{"o":"09:00","c":"13:00"},{"o":"16:30","c":"19:30"}],"mar":[{"o":"09:00","c":"13:00"},{"o":"16:30","c":"19:30"}],"mer":[{"o":"09:00","c":"13:00"},{"o":"16:30","c":"19:30"}],"gio":[{"o":"09:00","c":"13:00"},{"o":"16:30","c":"19:30"}],"ven":[{"o":"09:00","c":"13:00"},{"o":"16:30","c":"19:30"}],"sab":null,"dom":null}},{"id":"IT12018","name":"Il Cartolaio Matto","cap":"00166","civico":"","lat":41.915215,"lng":12.351623,"hours":{"lun":[{"o":"08:30","c":"13:00"},{"o":"15:30","c":"19:30"}],"mar":[{"o":"08:30","c":"13:00"},{"o":"15:30","c":"19:30"}],"mer":[{"o":"08:30","c":"13:00"},{"o":"15:30","c":"19:30"}],"gio":[{"o":"08:30","c":"13:00"},{"o":"15:30","c":"19:30"}],"ven":[{"o":"08:30","c":"13:00"},{"o":"15:30","c":"19:30"}],"sab":[{"o":"09:00","c":"13:00"}],"dom":null}},{"id":"IT12023","name":"Left Luggage Room","cap":"00184","civico":"4B","lat":41.889438,"lng":12.495457,"hours":{"lun":[{"o":"08:00","c":"20:00"}],"mar":[{"o":"08:00","c":"20:00"}],"mer":[{"o":"08:00","c":"20:00"}],"gio":[{"o":"08:00","c":"20:00"}],"ven":[{"o":"08:00","c":"20:00"}],"sab":[{"o":"08:00","c":"20:00"}],"dom":[{"o":"08:00","c":"20:00"}]}},{"id":"IT12036","name":"Tabacchi Skipper","cap":"00161","civico":"21","lat":41.911724,"lng":12.516776,"hours":{"lun":[{"o":"10:00","c":"12:45"},{"o":"14:45","c":"17:15"}],"mar":[{"o":"10:00","c":"12:45"},{"o":"14:45","c":"17:15"}],"mer":[{"o":"10:00","c":"12:45"},{"o":"14:45","c":"17:15"}],"gio":[{"o":"10:00","c":"12:45"},{"o":"14:45","c":"17:15"}],"ven":[{"o":"10:00","c":"12:45"},{"o":"14:45","c":"17:15"}],"sab":null,"dom":null}},{"id":"IT12051","name":"Posta Privata P&A - Riano","cap":"00060","civico":"34","lat":42.10102,"lng":12.504229,"hours":{"lun":[{"o":"09:00","c":"13:00"},{"o":"17:00","c":"19:00"}],"mar":[{"o":"09:00","c":"13:00"},{"o":"17:00","c":"19:00"}],"mer":[{"o":"09:00","c":"13:00"},{"o":"17:00","c":"19:00"}],"gio":[{"o":"09:00","c":"13:00"},{"o":"17:00","c":"19:00"}],"ven":[{"o":"09:00","c":"13:00"},{"o":"17:00","c":"19:00"}],"sab":[{"o":"09:00","c":"13:00"}],"dom":null}},{"id":"IT12054","name":"Cartoleria Esatto","cap":"00166","civico":"210","lat":41.914305,"lng":12.365118,"hours":{"lun":[{"o":"07:30","c":"13:00"},{"o":"15:30","c":"19:30"}],"mar":[{"o":"07:30","c":"13:00"},{"o":"15:30","c":"19:30"}],"mer":[{"o":"07:30","c":"13:00"},{"o":"15:30","c":"19:30"}],"gio":[{"o":"07:30","c":"13:00"},{"o":"15:30","c":"19:30"}],"ven":[{"o":"07:30","c":"13:00"},{"o":"15:30","c":"19:30"}],"sab":[{"o":"09:00","c":"13:00"},{"o":"16:00","c":"19:00"}],"dom":null}},{"id":"IT12057","name":"Cartoleria Effebbi","cap":"00148","civico":"","lat":41.844961,"lng":12.434076,"hours":{"lun":[{"o":"08:30","c":"13:00"},{"o":"16:00","c":"19:30"}],"mar":[{"o":"08:30","c":"13:00"},{"o":"16:00","c":"19:30"}],"mer":[{"o":"08:30","c":"13:00"},{"o":"16:00","c":"19:30"}],"gio":[{"o":"08:30","c":"13:00"},{"o":"16:00","c":"19:30"}],"ven":[{"o":"08:30","c":"13:00"},{"o":"16:00","c":"19:30"}],"sab":[{"o":"09:00","c":"13:30"}],"dom":null}},{"id":"IT12108","name":"Video Steven","cap":"00132","civico":"160/170","lat":41.90237,"lng":12.658825,"hours":{"lun":[{"o":"09:00","c":"19:00"}],"mar":[{"o":"09:00","c":"19:00"}],"mer":[{"o":"09:00","c":"19:00"}],"gio":[{"o":"09:00","c":"19:00"}],"ven":[{"o":"09:00","c":"19:00"}],"sab":[{"o":"09:00","c":"19:00"}],"dom":null}},{"id":"IT12110","name":"Cartolibreria Sotto L'arco","cap":"00119","civico":"9","lat":41.759956,"lng":12.30212,"hours":{"lun":[{"o":"08:30","c":"13:00"},{"o":"15:30","c":"19:00"}],"mar":[{"o":"08:30","c":"13:00"},{"o":"15:30","c":"19:00"}],"mer":[{"o":"08:30","c":"13:00"},{"o":"15:30","c":"19:00"}],"gio":[{"o":"08:30","c":"13:00"},{"o":"15:30","c":"19:00"}],"ven":[{"o":"08:30","c":"13:00"},{"o":"15:30","c":"19:00"}],"sab":null,"dom":null}},{"id":"IT12113","name":"One Market","cap":"00179","civico":"43","lat":41.870039,"lng":12.531256,"hours":{"lun":[{"o":"12:00","c":"22:30"}],"mar":[{"o":"09:30","c":"22:30"}],"mer":[{"o":"09:30","c":"22:30"}],"gio":[{"o":"09:30","c":"22:30"}],"ven":[{"o":"09:30","c":"22:30"}],"sab":[{"o":"10:00","c":"22:30"}],"dom":null}},{"id":"IT12132","name":"Micro Market","cap":"00176","civico":"122","lat":41.889111,"lng":12.538014,"hours":{"lun":[{"o":"09:30","c":"17:30"}],"mar":[{"o":"09:30","c":"17:30"}],"mer":[{"o":"09:30","c":"17:30"}],"gio":[{"o":"09:30","c":"17:30"}],"ven":[{"o":"09:30","c":"17:30"}],"sab":[{"o":"09:30","c":"17:30"}],"dom":null}},{"id":"IT12148","name":"Micro Market - Roma","cap":"00177","civico":"36","lat":41.894316,"lng":12.548313,"hours":{"lun":[{"o":"08:30","c":"13:30"},{"o":"15:30","c":"20:00"}],"mar":[{"o":"08:30","c":"13:30"},{"o":"15:30","c":"20:00"}],"mer":[{"o":"08:30","c":"13:30"},{"o":"15:30","c":"20:00"}],"gio":[{"o":"08:30","c":"13:30"},{"o":"15:30","c":"20:00"}],"ven":[{"o":"08:30","c":"13:30"},{"o":"15:30","c":"20:00"}],"sab":[{"o":"08:30","c":"13:30"},{"o":"15:30","c":"20:00"}],"dom":[{"o":"09:00","c":"13:00"}]}},{"id":"IT12149","name":"Tabaccheria Alimentari Cartoleria","cap":"00040","civico":"2","lat":41.758163,"lng":12.711655,"hours":{"lun":[{"o":"07:00","c":"13:00"},{"o":"16:30","c":"19:30"}],"mar":[{"o":"07:00","c":"13:00"},{"o":"16:30","c":"19:30"}],"mer":[{"o":"07:00","c":"13:00"},{"o":"16:30","c":"19:30"}],"gio":[{"o":"07:00","c":"13:00"},{"o":"16:30","c":"19:30"}],"ven":[{"o":"07:00","c":"13:00"},{"o":"16:30","c":"19:30"}],"sab":[{"o":"07:00","c":"13:00"},{"o":"16:30","c":"19:30"}],"dom":[{"o":"08:00","c":"13:00"},{"o":"17:00","c":"19:30"}]}},{"id":"IT12153","name":"OtticaSi","cap":"00143","civico":"47","lat":41.810851,"lng":12.484275,"hours":{"lun":[{"o":"09:30","c":"13:00"},{"o":"16:00","c":"19:00"}],"mar":[{"o":"09:30","c":"13:00"},{"o":"16:00","c":"19:00"}],"mer":[{"o":"09:30","c":"13:00"},{"o":"16:00","c":"19:00"}],"gio":[{"o":"09:30","c":"13:00"},{"o":"16:00","c":"19:00"}],"ven":[{"o":"09:30","c":"13:00"},{"o":"16:00","c":"19:00"}],"sab":[{"o":"09:30","c":"13:00"},{"o":"16:00","c":"19:00"}],"dom":null}},{"id":"IT12156","name":"Cartoleria Del Mutolo - Roma","cap":"00167","civico":"4","lat":41.902163,"lng":12.431654,"hours":{"lun":[{"o":"09:00","c":"13:00"},{"o":"16:00","c":"19:30"}],"mar":[{"o":"09:00","c":"13:00"},{"o":"16:00","c":"19:30"}],"mer":[{"o":"09:00","c":"13:00"},{"o":"16:00","c":"19:30"}],"gio":[{"o":"09:00","c":"13:00"},{"o":"16:00","c":"19:30"}],"ven":[{"o":"09:00","c":"13:00"},{"o":"16:00","c":"19:30"}],"sab":[{"o":"09:00","c":"13:00"},{"o":"16:00","c":"19:30"}],"dom":null}},{"id":"IT12163","name":"Pio e Riparo","cap":"00169","civico":"1068 B","lat":41.867037,"lng":12.591799,"hours":{"lun":[{"o":"10:00","c":"13:00"},{"o":"15:30","c":"19:00"}],"mar":[{"o":"10:00","c":"13:00"},{"o":"15:30","c":"19:00"}],"mer":[{"o":"10:00","c":"13:00"},{"o":"15:30","c":"19:00"}],"gio":[{"o":"10:00","c":"13:00"},{"o":"15:30","c":"19:00"}],"ven":[{"o":"10:00","c":"13:00"},{"o":"15:30","c":"19:00"}],"sab":[{"o":"10:00","c":"13:00"}],"dom":null}},{"id":"IT12165","name":"Alphacaf","cap":"00124","civico":"12","lat":41.749559,"lng":12.375958,"hours":{"lun":[{"o":"09:00","c":"12:30"},{"o":"16:00","c":"18:30"}],"mar":[{"o":"09:00","c":"12:30"},{"o":"16:00","c":"18:30"}],"mer":[{"o":"09:00","c":"12:30"},{"o":"16:00","c":"18:30"}],"gio":[{"o":"09:00","c":"12:30"},{"o":"16:00","c":"18:30"}],"ven":[{"o":"09:00","c":"12:30"},{"o":"16:00","c":"18:30"}],"sab":null,"dom":null}},{"id":"IT12166","name":"4-3-3 Libreria","cap":"00146","civico":"277","lat":41.862711,"lng":12.469951,"hours":{"lun":[{"o":"09:00","c":"13:00"},{"o":"16:00","c":"19:00"}],"mar":[{"o":"09:00","c":"13:00"},{"o":"16:00","c":"19:00"}],"mer":[{"o":"09:00","c":"13:00"},{"o":"16:00","c":"19:00"}],"gio":[{"o":"09:00","c":"13:00"},{"o":"16:00","c":"19:00"}],"ven":[{"o":"09:00","c":"13:00"},{"o":"16:00","c":"19:00"}],"sab":[{"o":"09:00","c":"13:00"},{"o":"16:00","c":"19:00"}],"dom":null}},{"id":"IT12170","name":"Equivalenza-Swarovski-Ore Felici","cap":"00036","civico":"","lat":41.832725,"lng":12.88494,"hours":{"lun":[{"o":"09:00","c":"13:00"},{"o":"16:30","c":"20:00"}],"mar":[{"o":"09:00","c":"13:00"},{"o":"16:30","c":"20:00"}],"mer":[{"o":"09:00","c":"13:00"},{"o":"16:30","c":"20:00"}],"gio":[{"o":"09:00","c":"13:00"}],"ven":[{"o":"09:00","c":"13:00"},{"o":"16:30","c":"20:00"}],"sab":[{"o":"09:00","c":"13:00"},{"o":"16:30","c":"20:00"}],"dom":null}},{"id":"IT12188","name":"Libreria Punto Scuola","cap":"00034","civico":"241/B","lat":41.725818,"lng":13.011186,"hours":{"lun":[{"o":"08:30","c":"12:30"},{"o":"16:00","c":"19:30"}],"mar":[{"o":"08:30","c":"12:30"},{"o":"16:00","c":"19:30"}],"mer":[{"o":"08:30","c":"12:30"},{"o":"16:00","c":"19:30"}],"gio":[{"o":"08:30","c":"12:30"}],"ven":[{"o":"08:30","c":"12:30"},{"o":"16:00","c":"19:30"}],"sab":[{"o":"08:30","c":"12:30"},{"o":"16:00","c":"19:30"}],"dom":null}},{"id":"IT12205","name":"Bar Petrelli","cap":"00148","civico":"253","lat":41.841488,"lng":12.449878,"hours":{"lun":[{"o":"07:00","c":"18:30"}],"mar":[{"o":"07:00","c":"18:30"}],"mer":[{"o":"07:00","c":"18:30"}],"gio":[{"o":"07:00","c":"18:30"}],"ven":[{"o":"07:00","c":"18:30"}],"sab":[{"o":"07:00","c":"18:30"}],"dom":null}},{"id":"IT12209","name":"Casali Elettrodomestici","cap":"00077","civico":"11","lat":41.809429,"lng":12.741345,"hours":{"lun":[{"o":"09:00","c":"13:00"},{"o":"16:30","c":"19:30"}],"mar":[{"o":"09:00","c":"13:00"},{"o":"16:30","c":"19:30"}],"mer":[{"o":"09:00","c":"13:00"},{"o":"16:30","c":"19:30"}],"gio":[{"o":"09:00","c":"13:00"},{"o":"16:30","c":"19:30"}],"ven":[{"o":"09:00","c":"13:00"},{"o":"16:30","c":"19:30"}],"sab":[{"o":"09:00","c":"13:00"}],"dom":null}},{"id":"IT12216","name":"Bar Branco","cap":"00145","civico":"199","lat":41.856421,"lng":12.485604,"hours":{"lun":[{"o":"08:00","c":"12:30"},{"o":"16:30","c":"20:00"}],"mar":[{"o":"08:00","c":"12:30"},{"o":"16:30","c":"20:00"}],"mer":[{"o":"16:30","c":"20:00"}],"gio":[{"o":"08:00","c":"12:30"},{"o":"16:30","c":"20:00"}],"ven":[{"o":"08:00","c":"12:30"},{"o":"16:30","c":"20:00"}],"sab":[{"o":"08:30","c":"12:30"},{"o":"16:30","c":"19:30"}],"dom":null}},{"id":"IT12218","name":"Parking Blu","cap":"00054","civico":"74","lat":41.8044,"lng":12.219643,"hours":{"lun":[{"o":"07:00","c":"23:00"}],"mar":[{"o":"07:00","c":"23:00"}],"mer":[{"o":"07:00","c":"23:00"}],"gio":[{"o":"07:00","c":"23:00"}],"ven":[{"o":"07:00","c":"23:00"}],"sab":[{"o":"07:00","c":"23:00"}],"dom":[{"o":"07:00","c":"23:00"}]}},{"id":"IT12221","name":"1 Solution System","cap":"00125","civico":"34","lat":41.775918,"lng":12.376984,"hours":{"lun":[{"o":"09:30","c":"13:00"},{"o":"15:30","c":"18:30"}],"mar":[{"o":"09:30","c":"13:00"},{"o":"15:30","c":"18:30"}],"mer":[{"o":"09:30","c":"13:00"},{"o":"15:30","c":"18:30"}],"gio":[{"o":"09:30","c":"13:00"},{"o":"15:30","c":"18:30"}],"ven":[{"o":"09:30","c":"13:00"},{"o":"15:30","c":"18:30"}],"sab":null,"dom":null}},{"id":"IT12223","name":"La Macchia","cap":"00036","civico":"63","lat":41.835318,"lng":12.888193,"hours":{"lun":[{"o":"09:00","c":"13:00"},{"o":"16:00","c":"19:30"}],"mar":[{"o":"09:00","c":"13:00"},{"o":"16:00","c":"19:30"}],"mer":[{"o":"09:00","c":"13:00"},{"o":"16:00","c":"19:30"}],"gio":[{"o":"09:00","c":"13:00"},{"o":"16:00","c":"19:30"}],"ven":[{"o":"09:00","c":"13:00"},{"o":"16:00","c":"19:30"}],"sab":[{"o":"09:00","c":"13:00"},{"o":"16:00","c":"19:30"}],"dom":null}},{"id":"IT12231","name":"Tabaccheria - Roma1- SoloCounter","cap":"00144","civico":"50","lat":41.814653,"lng":12.440766,"hours":{"lun":[{"o":"06:30","c":"20:30"}],"mar":[{"o":"06:30","c":"20:30"}],"mer":[{"o":"06:30","c":"20:30"}],"gio":[{"o":"06:30","c":"20:30"}],"ven":[{"o":"06:30","c":"20:30"}],"sab":[{"o":"06:30","c":"20:30"}],"dom":[{"o":"06:30","c":"20:30"}]}},{"id":"IT12232","name":"MPS Assistenza","cap":"00146","civico":"45","lat":41.862983,"lng":12.470396,"hours":{"lun":[{"o":"10:00","c":"13:00"},{"o":"15:30","c":"19:00"}],"mar":[{"o":"15:30","c":"19:00"}],"mer":[{"o":"10:00","c":"13:00"},{"o":"15:30","c":"19:00"}],"gio":[{"o":"15:30","c":"19:00"}],"ven":[{"o":"10:00","c":"13:00"},{"o":"15:30","c":"19:00"}],"sab":null,"dom":null}},{"id":"IT12236","name":"OtticaSi","cap":"00154","civico":"25","lat":41.865,"lng":12.485798,"hours":{"lun":[{"o":"09:30","c":"13:00"},{"o":"16:00","c":"19:00"}],"mar":[{"o":"09:30","c":"13:00"},{"o":"16:00","c":"19:00"}],"mer":[{"o":"09:30","c":"13:00"},{"o":"16:00","c":"19:00"}],"gio":[{"o":"09:30","c":"13:00"},{"o":"16:00","c":"19:00"}],"ven":[{"o":"09:30","c":"13:00"},{"o":"16:00","c":"19:00"}],"sab":[{"o":"09:30","c":"13:00"},{"o":"16:00","c":"19:00"}],"dom":null}},{"id":"IT12237","name":"GBnet di Biocca Giancarlo","cap":"00045","civico":"115/B","lat":41.703,"lng":12.692073,"hours":{"lun":[{"o":"09:30","c":"12:30"},{"o":"16:30","c":"19:00"}],"mar":[{"o":"09:30","c":"12:30"},{"o":"16:30","c":"19:00"}],"mer":[{"o":"09:30","c":"12:30"},{"o":"16:30","c":"19:00"}],"gio":[{"o":"09:30","c":"12:30"}],"ven":[{"o":"09:30","c":"12:30"},{"o":"16:30","c":"19:00"}],"sab":[{"o":"09:30","c":"12:30"},{"o":"16:30","c":"19:00"}],"dom":null}},{"id":"IT12251","name":"Centro Tim - Roma 1","cap":"00146","civico":"150","lat":41.86613,"lng":12.468455,"hours":{"lun":[{"o":"09:30","c":"13:00"},{"o":"16:00","c":"19:00"}],"mar":[{"o":"09:30","c":"13:00"},{"o":"16:00","c":"19:00"}],"mer":[{"o":"09:30","c":"13:00"},{"o":"16:00","c":"19:00"}],"gio":[{"o":"09:30","c":"13:00"},{"o":"16:00","c":"19:00"}],"ven":[{"o":"09:30","c":"13:00"},{"o":"16:00","c":"19:00"}],"sab":[{"o":"09:30","c":"13:00"},{"o":"16:00","c":"19:00"}],"dom":null}},{"id":"IT12252","name":"Centro Tim - Roma 2","cap":"00167","civico":"","lat":41.902885,"lng":12.423361,"hours":{"lun":[{"o":"11:00","c":"13:00"},{"o":"15:30","c":"19:00"}],"mar":[{"o":"11:00","c":"13:00"},{"o":"15:30","c":"19:00"}],"mer":[{"o":"11:00","c":"13:00"},{"o":"15:30","c":"19:00"}],"gio":[{"o":"11:00","c":"13:00"},{"o":"15:30","c":"19:00"}],"ven":[{"o":"11:00","c":"13:00"},{"o":"15:30","c":"19:00"}],"sab":[{"o":"11:00","c":"13:00"},{"o":"15:30","c":"19:00"}],"dom":null}},{"id":"IT12253","name":"Centro Tim - Roma 3","cap":"00121","civico":"60","lat":41.735196,"lng":12.278005,"hours":{"lun":[{"o":"11:00","c":"13:00"},{"o":"15:30","c":"19:00"}],"mar":[{"o":"11:00","c":"13:00"},{"o":"15:30","c":"19:00"}],"mer":[{"o":"11:00","c":"13:00"},{"o":"15:30","c":"19:00"}],"gio":[{"o":"11:00","c":"13:00"},{"o":"15:30","c":"19:00"}],"ven":[{"o":"11:00","c":"13:00"},{"o":"15:30","c":"19:00"}],"sab":[{"o":"11:00","c":"13:00"},{"o":"15:30","c":"19:00"}],"dom":null}},{"id":"IT12257","name":"Pc Tv Service","cap":"00166","civico":"87","lat":41.877098,"lng":12.344154,"hours":{"lun":[{"o":"09:00","c":"13:00"},{"o":"15:30","c":"19:30"}],"mar":[{"o":"09:00","c":"13:00"},{"o":"15:30","c":"19:30"}],"mer":[{"o":"09:00","c":"13:00"},{"o":"15:30","c":"19:30"}],"gio":[{"o":"09:00","c":"13:00"},{"o":"15:30","c":"19:30"}],"ven":[{"o":"09:00","c":"13:00"},{"o":"15:30","c":"19:30"}],"sab":null,"dom":null}},{"id":"IT12273","name":"Salustri Svapo","cap":"00044","civico":"1","lat":41.818123,"lng":12.688324,"hours":{"lun":[{"o":"09:00","c":"13:00"},{"o":"16:00","c":"20:00"}],"mar":[{"o":"09:00","c":"13:00"},{"o":"16:00","c":"20:00"}],"mer":[{"o":"09:00","c":"13:00"},{"o":"16:00","c":"20:00"}],"gio":[{"o":"09:00","c":"13:00"},{"o":"16:00","c":"20:00"}],"ven":[{"o":"09:00","c":"13:00"},{"o":"16:00","c":"20:00"}],"sab":[{"o":"09:00","c":"13:00"},{"o":"16:00","c":"20:00"}],"dom":null}},{"id":"IT12274","name":"Salustri Svapo - Grottaferrata","cap":"00046","civico":"2","lat":41.788889,"lng":12.66969,"hours":{"lun":[{"o":"09:00","c":"13:00"},{"o":"16:00","c":"20:00"}],"mar":[{"o":"09:00","c":"13:00"},{"o":"16:00","c":"20:00"}],"mer":[{"o":"09:00","c":"13:00"},{"o":"16:00","c":"20:00"}],"gio":[{"o":"09:00","c":"13:00"},{"o":"16:00","c":"20:00"}],"ven":[{"o":"09:00","c":"13:00"},{"o":"16:00","c":"20:00"}],"sab":[{"o":"09:00","c":"13:00"},{"o":"16:00","c":"20:00"}],"dom":null}},{"id":"IT12303","name":"Centro Servizi - Colonna","cap":"00030","civico":"61/A","lat":41.83672,"lng":12.75654,"hours":{"lun":[{"o":"10:00","c":"18:30"}],"mar":[{"o":"10:00","c":"18:30"}],"mer":[{"o":"10:00","c":"18:30"}],"gio":[{"o":"10:00","c":"18:30"}],"ven":[{"o":"10:00","c":"18:30"}],"sab":null,"dom":null}},{"id":"IT12307","name":"Centro Servizi PTT","cap":"00034","civico":"21","lat":41.726204,"lng":13.004503,"hours":{"lun":[{"o":"09:00","c":"13:00"}],"mar":[{"o":"09:00","c":"13:00"}],"mer":[{"o":"09:00","c":"13:00"}],"gio":[{"o":"09:00","c":"13:00"}],"ven":[{"o":"09:00","c":"13:00"}],"sab":null,"dom":null}},{"id":"IT12323","name":"Posta Privata Nazionale - Roma","cap":"00149","civico":"5","lat":41.86401,"lng":12.457068,"hours":{"lun":[{"o":"09:00","c":"13:00"},{"o":"13:30","c":"18:00"}],"mar":[{"o":"09:00","c":"13:00"},{"o":"13:30","c":"18:00"}],"mer":[{"o":"09:00","c":"13:00"},{"o":"13:30","c":"18:00"}],"gio":[{"o":"09:00","c":"13:00"},{"o":"13:30","c":"18:00"}],"ven":[{"o":"09:00","c":"13:00"},{"o":"14:00","c":"16:30"}],"sab":null,"dom":null}},{"id":"IT12324","name":"Posta Privata Nazionale - Roma2","cap":"00176","civico":"67","lat":41.889974,"lng":12.538825,"hours":{"lun":[{"o":"09:00","c":"13:00"},{"o":"14:30","c":"17:00"}],"mar":[{"o":"09:00","c":"13:00"},{"o":"14:30","c":"17:00"}],"mer":[{"o":"09:00","c":"13:00"},{"o":"14:30","c":"17:00"}],"gio":[{"o":"09:00","c":"13:00"},{"o":"14:30","c":"17:00"}],"ven":[{"o":"09:00","c":"13:00"},{"o":"14:30","c":"16:00"}],"sab":null,"dom":null}},{"id":"IT12326","name":"Posta Privata Nazionale - Roma3","cap":"00146","civico":"27","lat":41.847943,"lng":12.459443,"hours":{"lun":[{"o":"08:00","c":"13:00"}],"mar":[{"o":"08:00","c":"13:00"}],"mer":[{"o":"08:00","c":"13:00"}],"gio":[{"o":"08:00","c":"13:00"}],"ven":[{"o":"08:00","c":"13:00"}],"sab":[{"o":"09:00","c":"13:00"}],"dom":null}},{"id":"IT12443","name":"Oneservices","cap":"00148","civico":"31","lat":41.847231,"lng":12.423805,"hours":{"lun":[{"o":"08:00","c":"16:00"}],"mar":[{"o":"08:00","c":"16:00"}],"mer":[{"o":"08:00","c":"16:00"}],"gio":[{"o":"08:00","c":"16:00"}],"ven":[{"o":"08:00","c":"16:00"}],"sab":null,"dom":null}},{"id":"IT12447","name":"Insectum Store - Solo Locker","cap":"00167","civico":"107","lat":41.912927,"lng":12.415716,"hours":{"lun":[{"o":"14:00","c":"19:00"}],"mar":[{"o":"10:00","c":"19:00"}],"mer":[{"o":"10:00","c":"19:00"}],"gio":[{"o":"10:00","c":"19:00"}],"ven":[{"o":"10:00","c":"19:00"}],"sab":[{"o":"10:00","c":"19:00"}],"dom":null}},{"id":"IT12450","name":"Corriere dello Sport","cap":"00167","civico":"216/220","lat":41.89993,"lng":12.436811,"hours":{"lun":[{"o":"05:00","c":"15:00"}],"mar":[{"o":"05:00","c":"15:00"}],"mer":[{"o":"05:00","c":"15:00"}],"gio":[{"o":"05:00","c":"15:00"}],"ven":[{"o":"05:00","c":"15:00"}],"sab":[{"o":"05:00","c":"13:00"}],"dom":[{"o":"05:00","c":"13:00"}]}},{"id":"IT12451","name":"Bar Tavola Calda","cap":"00161","civico":"1","lat":41.908958,"lng":12.514108,"hours":{"lun":[{"o":"06:00","c":"19:00"}],"mar":[{"o":"06:00","c":"19:00"}],"mer":[{"o":"06:00","c":"19:00"}],"gio":[{"o":"06:00","c":"19:00"}],"ven":[{"o":"06:00","c":"19:00"}],"sab":[{"o":"06:00","c":"13:00"}],"dom":null}},{"id":"IT12452","name":"Ferramenta Colli Aniene","cap":"00155","civico":"","lat":41.913286,"lng":12.571143,"hours":{"lun":[{"o":"08:30","c":"13:00"},{"o":"15:30","c":"19:30"}],"mar":[{"o":"08:30","c":"13:00"},{"o":"15:30","c":"19:30"}],"mer":[{"o":"08:30","c":"13:00"},{"o":"15:30","c":"19:30"}],"gio":[{"o":"08:30","c":"13:00"},{"o":"15:30","c":"19:30"}],"ven":[{"o":"08:30","c":"13:00"},{"o":"15:30","c":"19:30"}],"sab":[{"o":"08:30","c":"13:00"}],"dom":null}},{"id":"IT12456","name":"Ostia Caffè","cap":"00121","civico":"52/56","lat":41.736037,"lng":12.267159,"hours":{"lun":[{"o":"06:00","c":"18:00"}],"mar":[{"o":"06:00","c":"18:00"}],"mer":[{"o":"06:00","c":"18:00"}],"gio":[{"o":"06:00","c":"18:00"}],"ven":[{"o":"06:00","c":"18:00"}],"sab":[{"o":"06:00","c":"18:00"}],"dom":[{"o":"07:00","c":"13:00"}]}},{"id":"IT12471","name":"Romaetravel","cap":"00188","civico":"","lat":42.003733,"lng":12.483494,"hours":{"lun":[{"o":"09:00","c":"18:00"}],"mar":[{"o":"09:00","c":"18:00"}],"mer":[{"o":"09:00","c":"18:00"}],"gio":[{"o":"09:00","c":"18:00"}],"ven":[{"o":"09:00","c":"18:00"}],"sab":[{"o":"09:00","c":"18:00"}],"dom":null}},{"id":"IT12477","name":"Sunlike","cap":"00177","civico":"141","lat":41.889923,"lng":12.55141,"hours":{"lun":[{"o":"10:00","c":"20:00"}],"mar":[{"o":"10:00","c":"20:00"}],"mer":[{"o":"10:00","c":"20:00"}],"gio":[{"o":"10:00","c":"20:00"}],"ven":[{"o":"10:00","c":"20:00"}],"sab":[{"o":"10:00","c":"20:00"}],"dom":[{"o":"10:00","c":"19:00"}]}},{"id":"IT12482","name":"Mondosped srls","cap":"00162","civico":"418","lat":41.914576,"lng":12.527707,"hours":{"lun":[{"o":"10:00","c":"17:00"}],"mar":[{"o":"10:00","c":"17:00"}],"mer":[{"o":"10:00","c":"17:00"}],"gio":[{"o":"10:00","c":"17:00"}],"ven":[{"o":"10:00","c":"17:00"}],"sab":[{"o":"10:00","c":"13:00"}],"dom":null}},{"id":"IT12486","name":"Delta Industrie srl","cap":"00049","civico":"349","lat":41.62284,"lng":12.797417,"hours":{"lun":[{"o":"09:00","c":"13:00"}],"mar":[{"o":"09:00","c":"13:00"}],"mer":[{"o":"09:00","c":"13:00"}],"gio":[{"o":"09:00","c":"13:00"}],"ven":[{"o":"09:00","c":"13:00"}],"sab":null,"dom":null}},{"id":"IT12487","name":"MD Poste Private","cap":"00053","civico":"56","lat":42.095926,"lng":11.797301,"hours":{"lun":[{"o":"08:30","c":"17:00"}],"mar":[{"o":"08:30","c":"17:00"}],"mer":[{"o":"08:30","c":"17:00"}],"gio":[{"o":"08:30","c":"17:00"}],"ven":[{"o":"08:30","c":"17:00"}],"sab":null,"dom":null}},{"id":"IT12505","name":"Edicola - Guidonia","cap":"00012","civico":"144","lat":41.987349,"lng":12.716848,"hours":{"lun":[{"o":"06:00","c":"12:30"},{"o":"16:00","c":"19:00"}],"mar":[{"o":"06:00","c":"12:30"},{"o":"16:00","c":"19:00"}],"mer":[{"o":"06:00","c":"12:30"},{"o":"16:00","c":"19:00"}],"gio":[{"o":"06:00","c":"12:30"},{"o":"16:00","c":"19:00"}],"ven":[{"o":"06:00","c":"12:30"},{"o":"16:00","c":"19:00"}],"sab":[{"o":"06:00","c":"12:30"},{"o":"16:00","c":"19:00"}],"dom":[{"o":"06:30","c":"12:30"}]}},{"id":"IT12512","name":"Eurocase","cap":"00125","civico":"5","lat":41.773739,"lng":12.350057,"hours":{"lun":[{"o":"09:00","c":"13:00"},{"o":"15:00","c":"19:00"}],"mar":[{"o":"09:00","c":"13:00"},{"o":"15:00","c":"19:00"}],"mer":[{"o":"09:00","c":"13:00"},{"o":"15:00","c":"19:00"}],"gio":[{"o":"09:00","c":"13:00"},{"o":"15:00","c":"19:00"}],"ven":[{"o":"09:00","c":"13:00"},{"o":"15:00","c":"19:00"}],"sab":[{"o":"09:00","c":"13:00"}],"dom":null}},{"id":"IT12522","name":"MDF Consulenze","cap":"00041","civico":"22","lat":41.728834,"lng":12.659134,"hours":{"lun":[{"o":"09:30","c":"12:30"},{"o":"15:30","c":"18:00"}],"mar":[{"o":"09:30","c":"12:30"},{"o":"15:30","c":"18:00"}],"mer":[{"o":"09:30","c":"12:30"},{"o":"15:30","c":"18:00"}],"gio":[{"o":"09:30","c":"12:30"},{"o":"15:30","c":"18:00"}],"ven":[{"o":"09:30","c":"12:30"},{"o":"15:30","c":"18:00"}],"sab":null,"dom":null}},{"id":"IT12526","name":"Edison","cap":"00146","civico":"12","lat":41.864137,"lng":12.469984,"hours":{"lun":[{"o":"10:00","c":"13:00"},{"o":"15:00","c":"18:00"}],"mar":[{"o":"10:00","c":"13:00"},{"o":"15:00","c":"18:00"}],"mer":[{"o":"10:00","c":"13:00"},{"o":"15:00","c":"18:00"}],"gio":[{"o":"10:00","c":"13:00"},{"o":"15:00","c":"18:00"}],"ven":[{"o":"10:00","c":"13:00"},{"o":"15:00","c":"18:00"}],"sab":null,"dom":null}},{"id":"IT12542","name":"Eredi Marconato s.a.s","cap":"00166","civico":"256","lat":41.906233,"lng":12.347786,"hours":{"lun":[{"o":"08:00","c":"13:00"},{"o":"14:00","c":"18:00"}],"mar":[{"o":"08:00","c":"13:00"},{"o":"14:00","c":"18:00"}],"mer":[{"o":"08:00","c":"13:00"},{"o":"14:00","c":"18:00"}],"gio":[{"o":"08:00","c":"13:00"},{"o":"14:00","c":"18:00"}],"ven":[{"o":"08:00","c":"13:00"},{"o":"14:00","c":"18:00"}],"sab":null,"dom":null}},{"id":"IT12552","name":"Il tavolo da disegno 2","cap":"00197","civico":"45","lat":41.921594,"lng":12.486459,"hours":{"lun":[{"o":"09:00","c":"13:00"},{"o":"14:30","c":"18:00"}],"mar":[{"o":"09:00","c":"13:00"},{"o":"14:30","c":"18:00"}],"mer":[{"o":"09:00","c":"13:00"},{"o":"14:30","c":"18:00"}],"gio":[{"o":"09:00","c":"13:00"},{"o":"14:30","c":"18:00"}],"ven":[{"o":"09:00","c":"13:00"},{"o":"14:30","c":"18:00"}],"sab":null,"dom":null}},{"id":"IT12559","name":"Caffè la Sosta","cap":"00043","civico":"5","lat":41.779961,"lng":12.635828,"hours":{"lun":[{"o":"06:30","c":"18:00"}],"mar":[{"o":"06:30","c":"18:00"}],"mer":[{"o":"06:30","c":"18:00"}],"gio":[{"o":"06:30","c":"18:00"}],"ven":[{"o":"06:30","c":"18:00"}],"sab":[{"o":"07:30","c":"13:00"}],"dom":null}},{"id":"IT12564","name":"Autorimessa Talenti","cap":"00137","civico":"9","lat":41.946787,"lng":12.547932,"hours":{"lun":[{"o":"06:00","c":"23:45"}],"mar":[{"o":"06:00","c":"23:45"}],"mer":[{"o":"06:00","c":"23:45"}],"gio":[{"o":"06:00","c":"23:45"}],"ven":[{"o":"06:00","c":"23:45"}],"sab":[{"o":"06:00","c":"23:45"}],"dom":[{"o":"07:00","c":"10:00"},{"o":"18:00","c":"23:45"}]}},{"id":"IT12576","name":"Wind-Roma1","cap":"00176","civico":"48","lat":41.887798,"lng":12.540581,"hours":{"lun":[{"o":"09:30","c":"13:30"}],"mar":[{"o":"09:30","c":"13:30"},{"o":"15:30","c":"19:30"}],"mer":[{"o":"09:30","c":"13:30"},{"o":"15:30","c":"19:30"}],"gio":[{"o":"09:30","c":"13:30"},{"o":"15:30","c":"19:30"}],"ven":[{"o":"09:30","c":"13:30"},{"o":"15:30","c":"19:30"}],"sab":[{"o":"09:30","c":"13:30"},{"o":"15:30","c":"19:30"}],"dom":null}},{"id":"IT12590","name":"Miele","cap":"00168","civico":"","lat":41.925544,"lng":12.42737,"hours":{"lun":[{"o":"09:00","c":"17:00"}],"mar":[{"o":"09:00","c":"17:00"}],"mer":[{"o":"09:00","c":"17:00"}],"gio":[{"o":"09:00","c":"17:00"}],"ven":[{"o":"09:00","c":"17:00"}],"sab":null,"dom":null}},{"id":"IT12593","name":"Bar Abruzzese","cap":"00060","civico":"1","lat":42.080829,"lng":12.542215,"hours":{"lun":[{"o":"07:00","c":"13:00"},{"o":"15:00","c":"19:00"}],"mar":[{"o":"07:00","c":"13:00"},{"o":"15:00","c":"19:00"}],"mer":[{"o":"07:00","c":"13:00"},{"o":"15:00","c":"19:00"}],"gio":[{"o":"07:00","c":"13:00"},{"o":"15:00","c":"19:00"}],"ven":[{"o":"07:00","c":"13:00"},{"o":"15:00","c":"19:00"}],"sab":[{"o":"07:00","c":"13:00"},{"o":"15:00","c":"19:00"}],"dom":[{"o":"07:00","c":"13:00"}]}},{"id":"IT12602","name":"Calypso - Solo Locker","cap":"00055","civico":"21","lat":41.954581,"lng":12.082707,"hours":{"lun":[{"o":"09:00","c":"19:30"}],"mar":[{"o":"09:00","c":"19:30"}],"mer":[{"o":"09:00","c":"19:30"}],"gio":[{"o":"09:00","c":"19:30"}],"ven":[{"o":"09:00","c":"19:30"}],"sab":[{"o":"09:00","c":"19:30"}],"dom":null}},{"id":"IT12606","name":"Edicola - Roma6","cap":"00135","civico":"SNC","lat":41.958505,"lng":12.395859,"hours":{"lun":[{"o":"08:00","c":"13:30"},{"o":"16:00","c":"19:30"}],"mar":[{"o":"08:00","c":"13:30"},{"o":"16:00","c":"19:30"}],"mer":[{"o":"08:00","c":"13:30"},{"o":"16:00","c":"19:30"}],"gio":[{"o":"08:00","c":"13:30"},{"o":"16:00","c":"19:30"}],"ven":[{"o":"08:00","c":"13:30"},{"o":"16:00","c":"19:30"}],"sab":[{"o":"08:00","c":"13:00"}],"dom":[{"o":"08:00","c":"13:00"}]}},{"id":"IT12610","name":"Methodo Store-Genzano di Roma","cap":"00045","civico":"148","lat":41.703558,"lng":12.691329,"hours":{"lun":[{"o":"09:00","c":"13:00"},{"o":"16:00","c":"19:00"}],"mar":[{"o":"09:00","c":"13:00"},{"o":"16:00","c":"19:00"}],"mer":[{"o":"09:00","c":"13:00"},{"o":"16:00","c":"19:00"}],"gio":[{"o":"09:00","c":"13:00"}],"ven":[{"o":"09:00","c":"13:00"},{"o":"16:00","c":"19:00"}],"sab":[{"o":"09:00","c":"13:00"},{"o":"16:00","c":"19:00"}],"dom":null}},{"id":"IT12611","name":"Methodo Store-Civitavecchia","cap":"00053","civico":"16/17","lat":42.092071,"lng":11.792198,"hours":{"lun":[{"o":"09:00","c":"13:00"},{"o":"16:30","c":"19:30"}],"mar":[{"o":"09:00","c":"13:00"},{"o":"16:30","c":"19:30"}],"mer":[{"o":"09:00","c":"13:00"},{"o":"16:30","c":"19:30"}],"gio":[{"o":"09:00","c":"13:00"}],"ven":[{"o":"09:00","c":"13:00"},{"o":"16:30","c":"19:30"}],"sab":[{"o":"09:00","c":"13:00"},{"o":"16:30","c":"19:30"}],"dom":null}},{"id":"IT12614","name":"Cartoon Shop","cap":"00063","civico":"35","lat":42.139581,"lng":12.38168,"hours":{"lun":[{"o":"09:00","c":"13:00"},{"o":"16:30","c":"19:30"}],"mar":[{"o":"09:00","c":"13:00"},{"o":"16:30","c":"19:30"}],"mer":[{"o":"09:00","c":"13:00"},{"o":"16:30","c":"19:30"}],"gio":[{"o":"09:00","c":"13:00"},